[{"facebook":{"category_list":[{"id":"173883042668223","name":"Theater"}],"name":"Teatro Bogart","location":{"city":"Cesena","country":"Italy","latitude":44.154333714227,"longitude":12.262025549465,"zip":"47521"},"id":"181936991863598","__percent":0.6666666666666666},"opendata":{"gid":1,"id":"teatro_1","categoria":"CINETEATRO","nome":"BOGART","indirizzo":"VIA CHIESA DI S.EGIDIO, 110","telefono":"0547-384777","latitudine":44.1542755551691,"longitudine":12.2619872965704,"field11":"","tags":["teatro"]},"google":{"geometry":{"location":{"lat":44.1543538,"lng":12.2618947},"viewport":{"northeast":{"lat":44.15443315,"lng":12.26191825},"southwest":{"lat":44.15411575000001,"lng":12.26188685}}},"icon":"https://maps.gstatic.com/mapfiles/place_api/icons/generic_business-71.png","id":"1dba6ea8b0ade0f9f3794e5a28a44714f5be6a62","name":"Cineteatro Bogart","place_id":"ChIJ9zIlWda6LBMRyhX8Gd0Me94","reference":"CnRlAAAAXbsJrS6Ejv2KQtvGiurMBZw96xhofOhnsxjkedIv3GGmUkjqBQcfHs95Zxj6p_NswBHhPIlZ_BEA_8WzOkJ0LtMyKw7rQZDXh8PGEJWL3kQKPKyQfU7dqFhwRYKgp279JTACOoy9IDat0pPVG6TrSRIQAjYL0HrgYTFS7m8VvvFDgxoU6b8aJPzqbLLPagG-NnNI1VH3MQA","scope":"GOOGLE","types":["point_of_interest","establishment"],"vicinity":"Via Chiesa di Sant'Egidio, 110, Cesena","__percent":0.5263157894736842}},{"facebook":{"category_list":[{"id":"186982054657561","name":"Sports & Recreation"}],"name":"Carisport Cesena","location":{"city":"Cesena","country":"Italy","latitude":44.145474909003,"longitude":12.22712981858,"zip":"47522"},"id":"558076704209372","__percent":0.7619047619047619},"opendata":{"gid":2,"id":"teatro_2","categoria":"NUOVO TEATRO","nome":"CARISPORT","indirizzo":"PLE TORDI PAOLO, 99","telefono":"0547-22311","latitudine":44.1454596154986,"longitudine":12.2272892704278,"field11":"","tags":["teatro"]},"google":{"geometry":{"location":{"lat":44.1454467,"lng":12.2269886}},"icon":"https://maps.gstatic.com/mapfiles/place_api/icons/generic_business-71.png","id":"373d62e55aff569642f89210d9d3036ad66deb97","name":"Carisport","photos":[{"height":2988,"html_attributions":["<a href=\"https://maps.google.com/maps/contrib/109673817894540091841/photos\">Dario Duranti</a>"],"photo_reference":"CoQBdwAAAMFThbi8C28LHlyvNOSzS_aTjgG0qZH7mr90FPWjxD5HnIQABqsmdVthF7n3Mtx4vhYXnB90LxZZFVIbdOqoWjX3M2tMN1Adx2LbJ3obiW0BuCTwipjw7kb53X6U0TFOerjjVxDCkCaVUgmZs5ULAwRkvRoJPr6-qGVTdeakG_QFEhCI-xiRt-4fucN1UibF5RhOGhSwq1GzoeuzpJXG94W-pIsJ6VlLOg","width":5312}],"place_id":"ChIJF37uweikLBMRDxieCwrzfsE","rating":4,"reference":"CmRdAAAAYL5SkXlDUBnTMEdOkkyWNvT3sxp8ziPPt3Sjeh1z_CCnyoCKrtxNy0bnkQKuwXWpXVNwtDR_ib_DZHR0dg_Zmh_hRXI4Q4aH8OoPnsoz3JGlIu-dfuMkeI3sBG-Vy9brEhCmxC9NGgb3TJO9XzFzOKpJGhTJIcq5eu60qiO4PyY5v6wXYlHAFw","scope":"GOOGLE","types":["point_of_interest","establishment"],"vicinity":"Via Giuseppe Ambrosini, 99, Cesena","__percent":1}},{"facebook":{},"opendata":{"gid":3,"id":"teatro_3","categoria":"TEATRO","nome":"COMANDINI","indirizzo":"VIA SERRAGLIO","telefono":"0547-25566","latitudine":44.1368697013647,"longitudine":12.2499906657009,"field11":"","tags":["teatro"]},"google":{"geometry":{"location":{"lat":44.1366776,"lng":12.250221},"viewport":{"northeast":{"lat":44.1377333,"lng":12.2504631},"southwest":{"lat":44.1363257,"lng":12.2494947}}},"icon":"https://maps.gstatic.com/mapfiles/place_api/icons/generic_business-71.png","id":"90075b84a8255c14b13b8b0d42995ce323b12726","name":"Teatro Comandini","place_id":"ChIJaW-O0sukLBMRVMJtuX0spIM","reference":"CnRkAAAA-7zS1UO0AjAtjqLwTn7w29fZx54Vx8I-Mq3MmULPtO4o-4JvNV9-s41kAxT_CgTo9JKosYTtT6kM6-A89xBtVRQNsPx3Znb7clG_e2XTg6hhNmksHb0DWyGaqVUKTLRV4AdXL2LqikEIPdNejnCOgBIQUwpO3VcV52B7JFZC2vcz5BoU8GZmnVPD6U0f0E661rZv6vKb-Ao","scope":"GOOGLE","types":["point_of_interest","establishment"],"vicinity":"Via Serraglio, 22, Cesena","__percent":0.7619047619047619}},{"facebook":{"category_list":[{"id":"211155112228091","name":"Event Venue"},{"id":"173883042668223","name":"Theater"},{"id":"192511100766680","name":"Movie Theater"}],"name":"Teatro Bonci","location":{"city":"Cesena","country":"Italy","latitude":44.13609,"longitude":12.2483,"street":"Piazza Mario Guidazzi, 8","zip":"47521"},"id":"143197602391316","__percent":0.45454545454545453},"opendata":{"gid":4,"id":"teatro_4","categoria":"TEATRO","nome":"ALESSANDRO BONCI","indirizzo":"PZA GUIDAZZI, 9","telefono":"0547-355911","latitudine":44.1360135957985,"longitudine":12.2482502795467,"field11":"","tags":["teatro"]},"google":{"geometry":{"location":{"lat":44.1359443,"lng":12.2482056},"viewport":{"northeast":{"lat":44.13627295,"lng":12.24830635},"southwest":{"lat":44.13583475,"lng":12.24790335}}},"icon":"https://maps.gstatic.com/mapfiles/place_api/icons/generic_business-71.png","id":"de4b8cef1c2050a0329333561c6126c75ccc69fd","name":"Teatro Alessandro Bonci","opening_hours":{"open_now":false,"weekday_text":[]},"photos":[{"height":1836,"html_attributions":["<a href=\"https://maps.google.com/maps/contrib/111651198925352835889/photos\">Francesco La Bella</a>"],"photo_reference":"CoQBdwAAACczVXoeKHYhB4pzNU6ivbPayejJ6_wLLnaij4AXPdcrOG77bUWmfBB4JzMXryP-HZc-zsv-q4_A_pAJI4NFBT3k_UiZlrWmpV7bv6eMSC2eQcFcpTUUpWFLj4WEX-J3RSIL-1XwChi_OdYNZOncGr6LBfARirKWnLCbe_OkBBJpEhDm7YyE52ttJYyVhz6i6T1wGhSEP_08Lx62J5WH9bkJHhlcs4vsTw","width":3264}],"place_id":"ChIJvVNpjMmkLBMRTV7iynukBjo","rating":4.8,"reference":"CnRqAAAAloS1BaYqO3ac-S5wc-z_PEgdhVicO1UmQUv2qFRrnj1ED4cYpX8RGLh1Dnv-MROU0PTbbiOoXhgJBDSZgv_BW2aPSA0t1k-LXMawpb7Wa67DqUTH-x8oHQ5y4Ck9_wutPcM-VvB5V1Z-YwWryX4JLRIQ2Fzg12zShvKEGk7Hdvq_aRoUx3V9xDkOW4wuqn45s4tIc4Dx0lw","scope":"GOOGLE","types":["point_of_interest","establishment"],"vicinity":"Piazza Mario Guidazzi, 9, Cesena","__percent":0.8387096774193549}},{"facebook":{},"opendata":{"gid":1,"id":"movie_5","nome":"ELISEO","indirizzo":"VLE CARDUCCI GIOSUE' 7","telefono":"0547-21520","tipo":"MULTISALA","n_schermi":4,"mi_schermi":"10X4,3-8X3-11X4,7-7X3","tot_posti":693,"email":"ifo@cinemaeliseo.it","sito_web":"www.cinemaeliseo.it","gestore":"ELISEO SRL","proprieta":"ELISEO SRL","associazio":"ANEC-FICE","latitudine":44.1394900932136,"longitudine":12.2468120851603,"tags":["movie"]},"google":{"geometry":{"location":{"lat":44.1394168,"lng":12.2469056},"viewport":{"northeast":{"lat":44.13944045,"lng":12.2469373},"southwest":{"lat":44.13935065,"lng":12.2468145}}},"icon":"https://maps.gstatic.com/mapfiles/place_api/icons/movies-71.png","id":"4b8d0a22f184127073337f0ebc775e2ccf182711","name":"Cinema Eliseo Multisala","photos":[{"height":400,"html_attributions":["<a href=\"https://maps.google.com/maps/contrib/102939258817506628221/photos\">Cinema Eliseo Multisala</a>"],"photo_reference":"CoQBcwAAAMYPfnfrQpAtOVGIr_PqOj4xwVLrrFHKzJcCmah3t6STj0WlTfEdoUbuKvhWr6eVFpcX6k6otBdHTnmmHOaCGh5E-w54noX2obCZwV48iU9fpSkHkUC1p_Nuqw6-Gp6BoKQvqvuwCc6BT1UJCCmxf2AxAFKJiA8mEPr9fFe0_F9ZEhAzVFsMr8KZtDEE3HZuJpz9GhT4mVfwdBkP7dJ8cNTgLdtEpWdqOg","width":600}],"place_id":"ChIJY843LMmkLBMRLhgczK8eEuA","rating":4.3,"reference":"CnRrAAAAG4gO2NwHyzwoyJQcUELYF6Jb-XOAYBvkyJyk-2KGFIfVrkkM9U7d5kHRMCvw-eoDboGrgD3Cg1vd2hgxY5-Ut2zzVA1BzNsdJARUyNHFrDK2PZcNUOi6VpciNyBPOiVffIpwwz_wsxPGA_nUIwZfURIQgU_y-l5LjIYOYqmjA_jh4hoUuJ9rCnBFCUrfl2cTR91vp7s73kE","scope":"GOOGLE","types":["movie_theater","point_of_interest","establishment"],"vicinity":"Viale Giosuè Carducci, 7, Cesena","__percent":0.43478260869565216}},{"facebook":{"category_list":[{"id":"192511100766680","name":"Movie Theater"}],"name":"Cinema Aladdin","location":{"city":"Cesena","country":"Italy","latitude":44.14595,"longitude":12.28294,"street":"via Assano, 587","zip":"47521"},"id":"146532242065011","__percent":0.7058823529411765},"opendata":{"gid":2,"id":"movie_1","nome":"ALADDIN","indirizzo":"VIA ASSANO, 587","telefono":"0547-328126","tipo":"MULTISALA","n_schermi":4,"mi_schermi":"15X10-10X7-8X6-6X4","tot_posti":745,"email":"mutisala.alladin@gmail.com","sito_web":"wwwalladinmultisaa.it","gestore":"ALPACINE SRL","proprieta":"ALPACINE SRL","associazio":"","latitudine":44.1459368693192,"longitudine":12.282904238269,"tags":["movie"]},"google":{"geometry":{"location":{"lat":44.1458909,"lng":12.2829773},"viewport":{"northeast":{"lat":44.14613515000001,"lng":12.283331},"southwest":{"lat":44.14515814999999,"lng":12.2828594}}},"icon":"https://maps.gstatic.com/mapfiles/place_api/icons/movies-71.png","id":"1019a9cd4f02dcb71827f74004918331fdb84bd3","name":"Aladdin","place_id":"ChIJGTTbnB67LBMRuXPQl2R5tiY","rating":4.2,"reference":"CmRaAAAAucGphtBEFlg6puxTZvEztwlJ7PZf2yTjw91q41tO8aeVqCr7exPZewk0UU5uBcYDx_DJpxr_gxpJrNrRA8Q0eMQ95cwL8SDgZhaeudzEaCTjbfSHBT0iOEaPRLiLjExdEhADYQEy4OclDMppQ1ElkH0KGhS7D1ZDqN3lImgKrABpa_cDzdIGqA","scope":"GOOGLE","types":["movie_theater","point_of_interest","establishment"],"vicinity":"Via Assano, 587, Cesena","__percent":1}},{"facebook":{"category_list":[{"id":"192511100766680","name":"Movie Theater"}],"about":"Multisala d'essai.\nSala verde: 112 posti, \nSala Rossa: 88 posti.\n*Proiezione digitale \n\n\n","name":"Cinema San Biagio","location":{"city":"Cesena","country":"Italy","latitude":44.137484047292,"longitude":12.247947293103,"street":"Via Aldini 24","zip":"47521"},"cover":{"cover_id":"1409713032612954","offset_x":0,"offset_y":0,"source":"https://scontent.xx.fbcdn.net/v/t1.0-9/s720x720/1897985_1409713032612954_1205871059_n.jpg?oh=82206d40556e3565b3461cd9ad4f6295&oe=58980917","id":"1409713032612954"},"description":"PREZZI:\n7.00 € -  Valido dal venerdì alla domenica\n5.00 € - Valido per tutti dal martedì al giovedì\n\nSpeciale studenti - 5.00 € - Valido tutti i giorni, anche nel week-end. \n\ncard 5 ingressi 20.00 € -  Consente la visione di film in prima visione ad un prezzo ridotto. Può essere utilizzata tutti i giorni dell'anno, compresi festivi e prefestivi, senza limitazioni e scadenze.\n","id":"1409690455948545","__percent":0.7368421052631579},"opendata":{"gid":3,"id":"movie_6","nome":"SAN BIAGIO","indirizzo":"VIA ALDINI, 24","telefono":"0547-355718","tipo":"MULTISALA","n_schermi":2,"mi_schermi":"2,5X5,7-2,5X4,8","tot_posti":200,"email":"cine.image@tin.it","sito_web":"www.comune.cesena.fc.it/Sanbiagiocesena","gestore":"CINEFORUM IMAGE","proprieta":"COMUNE DI CESENA","associazio":"FICE","latitudine":44.137626306482,"longitudine":12.2479491890189,"tags":["movie"]},"google":{"geometry":{"location":{"lat":44.1374684,"lng":12.2479225},"viewport":{"northeast":{"lat":44.13758375000001,"lng":12.24805},"southwest":{"lat":44.13742994999999,"lng":12.2478088}}},"icon":"https://maps.gstatic.com/mapfiles/place_api/icons/movies-71.png","id":"e8d8782153addd0ddd92101a1b64b7f83032b2ee","name":"San Biagio","place_id":"ChIJp9IKdMmkLBMR13R5akN-gBw","reference":"CmRdAAAAhImkTvNuV2nRGf52y_yH0kGeWffFZzavFIjARohn4DZyGYgRzTq3pvzOMT52Wu4CAqr8Kz5at2HNcLoBeAJiKbRErzC2U_hww1Tw_XGWs2QKNv_6roi7E3gu7E2dh4nrEhAIicZN0ww-2G2omLJKbVudGhQm4R0mKuTwW3KAFLzQFR1OZcw63Q","scope":"GOOGLE","types":["movie_theater","point_of_interest","establishment"],"vicinity":"Via Aldini, 24, Cesena","__percent":1}},{"facebook":{"category_list":[{"id":"192511100766680","name":"Movie Theater"}],"about":"PREZZO UNICO € 3.50 - Feriali ore 21:00 - Festivi ore 18:40 - 21:00\nPOMERIGGI DEI PICCOLI\nSabato ore 16:30 - Festivi ore 15:00 - 17:00\nLunedì riposo ","name":"Cinema Astra Cesena","location":{"city":"Cesena","country":"Italy","latitude":44.13302695,"longitude":12.24404242,"street":"Viale Osservanza, 190","zip":"47521"},"cover":{"cover_id":"784819638247133","offset_x":0,"offset_y":0,"source":"https://scontent.xx.fbcdn.net/v/t1.0-9/s720x720/10565020_784819638247133_3171276069408617861_n.jpg?oh=b3373c7844f855a7f5fcb3525e53869f&oe=58A3B3A9","id":"784819638247133"},"description":"Locale tutto rinnovato\n    * 250 Posti a sedere \n    * Bar con sala attesa\n    * 200 posti parcheggio auto GRATUITI\n    * Proiezione digitale\n    * Sistema Audio DOLBY DIGITAL\n","id":"126324547429982","__percent":0.4444444444444444},"opendata":{"gid":4,"id":"movie_3","nome":"ASTRA","indirizzo":"VLE OSSERVANZA, 190","telefono":"0547-612227","tipo":"MONOSALA","n_schermi":1,"mi_schermi":"9X6","tot_posti":245,"email":"info@cinemastra.it","sito_web":"www.cinemastra.it","gestore":"DIOCESI DI CESENA","proprieta":"VAKAJA PRANVERA","associazio":"ACEC","latitudine":44.132905807496,"longitudine":12.2438548837584,"tags":["movie"]},"google":{"geometry":{"location":{"lat":44.1329625,"lng":12.2441621},"viewport":{"northeast":{"lat":44.13307590000001,"lng":12.24451745},"southwest":{"lat":44.1329247,"lng":12.24404365}}},"icon":"https://maps.gstatic.com/mapfiles/place_api/icons/movies-71.png","id":"c1a078c6bc2d1b19af3959e521c66562592931fe","name":"Astra","photos":[{"height":540,"html_attributions":["<a href=\"https://maps.google.com/maps/contrib/111887941176279317158/photos\">Cinema Astra Cesena</a>"],"photo_reference":"CoQBcwAAABVCby4wTffPgfZcfIrzSXWLGgGHTrNfKJf8p0XtjNfnDiHzQ0W3c9VIeX_OkrvDZXPVKSwQiMAii_t5VnyrKmZQ8u-Mncp0xLzYVj2nWI4rBYH6MoNFaH8R4Q6YsP-5TYkei2G3Bq0cl2uPpyMCRMJm1QK-_kbS9Qj-Vhf0RrKHEhDdJMJCExJN5m0A_MmIJpdIGhROM0BInZcGorGhRZK_4Q-t_ZaMKQ","width":720}],"place_id":"ChIJXWimnbekLBMRWaKYdcbbNTQ","rating":4.4,"reference":"CmRYAAAA6cTlSeOdyL-6S_AY2-BqxJ0GVqS5bOLg6zpLfv4OOwx8NuyLW3H9ps_ZeKqs25PMG1WpjB5CI_Vq8irZoeDzBj_VjmNfbIYgiePD0gdczso5RErSzZfz-OZs1KpPiwimEhAKSD5pdwVMwJVkEX__n_UyGhSJT7Hla1U0xIwWwGzyna_4emMiWQ","scope":"GOOGLE","types":["movie_theater","point_of_interest","establishment"],"vicinity":"Viale Osservanza, 190, Cesena","__percent":1}},{"facebook":{"category_list":[{"id":"173883042668223","name":"Theater"}],"name":"Teatro Bogart","location":{"city":"Cesena","country":"Italy","latitude":44.154333714227,"longitude":12.262025549465,"zip":"47521"},"id":"181936991863598","__percent":0.6666666666666666},"opendata":{"gid":5,"id":"movie_4","nome":"BOGART","indirizzo":"VIA CHIESA DI S.EGIDIO, 110","telefono":"0547-384777","tipo":"MONOSALA","n_schermi":1,"mi_schermi":"","tot_posti":0,"email":"","sito_web":"","gestore":"DIOCESI DI CESENA","proprieta":"DIOCESI DI CESENA","associazio":"","latitudine":44.1542755551691,"longitudine":12.2619872965704,"tags":["movie"]},"google":{"geometry":{"location":{"lat":44.1543538,"lng":12.2618947},"viewport":{"northeast":{"lat":44.15443315,"lng":12.26191825},"southwest":{"lat":44.15411575000001,"lng":12.26188685}}},"icon":"https://maps.gstatic.com/mapfiles/place_api/icons/generic_business-71.png","id":"1dba6ea8b0ade0f9f3794e5a28a44714f5be6a62","name":"Cineteatro Bogart","place_id":"ChIJ9zIlWda6LBMRyhX8Gd0Me94","reference":"CnRlAAAA4HtScPwXD4bLuitb22cFkDVNb3s-udvXV97FTAKl4GzGgBriXd7VUikBz_D5YS6E2NVZHZ1K9b4Cp7KNVilZLqg60h1HtWt1basnYlgTnHfmESmbiwJPEpa_Fi1aN4UV2ez8cNRvBLx1eL2hrMNQohIQolVH6il7tf5_UBFIBurxhhoUV_oFY4VWSv-wJ2FTYD4dhSD0Ymc","scope":"GOOGLE","types":["point_of_interest","establishment"],"vicinity":"Via Chiesa di Sant'Egidio, 110, Cesena","__percent":0.5263157894736842}},{"facebook":{"category_list":[{"id":"192511100766680","name":"Movie Theater"}],"name":"Arena San Biagio Cesena","location":{"city":"Cesena","country":"Italy","latitude":44.136709464007,"longitude":12.250025443492,"zip":"47521"},"id":"131984380216031","__percent":0.8148148148148148},"opendata":{"gid":6,"id":"movie_2","nome":"ARENA SAN BIAGIO","indirizzo":"VIA SERRAGLIO 20","telefono":"0547-355757","tipo":"MONOSALA","n_schermi":1,"mi_schermi":"5X12","tot_posti":600,"email":"cine.image@tin.it","sito_web":"www.comune.cesena.fc.it/Sanbiagiocesena","gestore":"CINEFORUM IMAGE","proprieta":"COMUNE DI CESENA","associazio":"FICE","latitudine":44.1366875468802,"longitudine":12.2502492165647,"tags":["movie"]},"google":{}},{"facebook":{"category_list":[{"id":"173883042668223","name":"Theater"},{"id":"192511100766680","name":"Movie Theater"}],"about":"Biglietto € 3,50 ; proiezioni senza pubblicità e bar con ottimi prezzi!!","name":"CineTeatro Victor","location":{"city":"Cesena","country":"Italy","latitude":44.10552,"longitude":12.1961099,"street":"Via San Vittore 1680","zip":"47522"},"cover":{"cover_id":"992791880775439","offset_x":0,"offset_y":62,"source":"https://scontent.xx.fbcdn.net/t31.0-0/p180x540/13131362_992791880775439_2612346953936941624_o.jpg","id":"992791880775439"},"description":"Orari Proiezioni:\nMartedi 21.00\nGiovedi 21.00\nVenerdì 21.00\nSabato 21.00\nDomenica 15.00\\17.00\\21.00\n\nLa sala è disponibile per commedie, saggi e qualsiasi opera teatrale.","id":"401279759926657","__percent":0.5263157894736842},"opendata":{"gid":7,"id":"movie_7","nome":"VICTOR","indirizzo":"VIA SAN VITTORE 1680","telefono":"368-208218","tipo":"MONOSALA","n_schermi":1,"mi_schermi":"8,5X4,5","tot_posti":186,"email":"info@cinemateatrovictor.it","sito_web":"www.cineteatrovictor.it","gestore":"COOP AMICIZIA SAN VITTORE SCRL","proprieta":"DIOCESI DI CESENA","associazio":"ACEC","latitudine":44.1054899404846,"longitudine":12.1960754101106,"tags":["movie"]},"google":{"geometry":{"location":{"lat":44.10554750000001,"lng":12.1961425},"viewport":{"northeast":{"lat":44.10554930000001,"lng":12.19635445},"southwest":{"lat":44.10554209999999,"lng":12.19607185}}},"icon":"https://maps.gstatic.com/mapfiles/place_api/icons/movies-71.png","id":"8376990ce6e79cf62bb5e1fdae41b053aa394237","name":"CineTeatro Victor","opening_hours":{"open_now":true,"weekday_text":[]},"photos":[{"height":1462,"html_attributions":["<a href=\"https://maps.google.com/maps/contrib/117869346478438504756/photos\">CineTeatro Victor</a>"],"photo_reference":"CoQBcwAAACsjnEcV-PFM8bQe5B7G2mNgyDyikNTvLUKuaO67MhVcKYbfyps4AVit5Nz9g4Wa3bPG4jVKt90HhOlUQ3ddMup22HkKxh3gJPicAIP6Bd1j7iSTlmHoqeYY0OSvRuDEVHqqkxe9mKZULM2Faf-e7KU8RAjEek8uuRJWFGCLCd43EhBrgf6rZrjUJQR-0HI5YTVfGhT2TG_d4afP2CJTWpfE6pRz6vtRWg","width":1468}],"place_id":"ChIJWY4nC5ejLBMRHgSA8nRvr2w","rating":4.1,"reference":"CnRkAAAAZmJ4DvA7FBV8TgNZ2VyhQWWF6MT-DYTBFKPNwybGVES-gfKQD_Z3rUTQ8uu7lc0ncMSjisByd-j0iNNCVXxn_H2v8jD_0yKtlgwEO1hTZkFnm0bO-IPwUUgk2eQHT61_A9o0QsgIQkvGQQSwqq_W-BIQFHu38dGEKLNx9FJehwHMJhoUk3ytOyYePJJNLtBfmEv9RLDI5lc","scope":"GOOGLE","types":["movie_theater","point_of_interest","establishment"],"vicinity":"Via San Vittore, 1680, Cesena","__percent":0.5263157894736842}}]