[{"google":{"html_attributions":[],"results":[{"formatted_address":"Via Emilia Levante, 1849, Cesena FC, Italy","geometry":{"location":{"lat":44.1231218,"lng":12.2888407},"viewport":{"northeast":{"lat":44.12322685000001,"lng":12.28894425},"southwest":{"lat":44.12280664999999,"lng":12.28853005}}},"icon":"https://maps.gstatic.com/mapfiles/place_api/icons/generic_business-71.png","id":"942f56993380c83027bba04518bb648430400011","name":"A.R.M.A.C. Di Ambrosini Gerardo & C. Snc","opening_hours":{"open_now":false,"weekday_text":[]},"place_id":"ChIJzwPA0G-7LBMRH-lzMns0zHI","reference":"CmRRAAAAWobciFbKSNvqUu75npC1k8uvtRtgMAg_v1ywt7tBeGJK1O3HzFahI_Of1zBLUCVaFLcWI6uGX1IpXBF-f9uM_vhtMBT3tqGUrCaP_to7vHb6qVth74PPVGbOQt4HP-xpEhAfKNIAmnWP5ymQpsplB7MdGhTw2Gb54uL759qpNpOqn50g7ihtpw","types":["food","point_of_interest","establishment"]}],"status":"OK"},"place":{"name":"A.r.m.a.c. Di Ambrosini Gerardo & C. (s.n.c.) ","address_1":"Via Emilia Levante 1849","address_2":"47023 Cesena (FC)"}},{"google":{"html_attributions":[],"results":[{"formatted_address":"Via Stradone Sala, 255, Cesena FC, Italy","geometry":{"location":{"lat":44.15271,"lng":12.3489819},"viewport":{"northeast":{"lat":44.15275085,"lng":12.3490281},"southwest":{"lat":44.15263585,"lng":12.3489565}}},"icon":"https://maps.gstatic.com/mapfiles/place_api/icons/generic_business-71.png","id":"f12616bfe5a36da585f05f3f5164ceca0b79050b","name":"Garden Magalotti - Societa' Agricola S.S.","place_id":"ChIJfzR1Y4i5LBMRuqqaGIgx-ts","reference":"CmRSAAAAcDU-Sf6buGV_7ZpmLQGf7_kYJkb0rD4hpxykv4dCDQ9cDvi811t9-axZ3OeT0uTaWEW2E8013DfToHuf_ocP2MNDa6nlg0KU3bL97a55oZW4UmdBlunwWxmeWD7aX6_3EhDWnes5wfPLnFmbEzP6stbUGhR_9Z-OuAiwJ4DKXw811j-JuceUhQ","types":["food","point_of_interest","establishment"]},{"formatted_address":"Via Cesenatico, 6018, 47521 Cesena FC, Italy","geometry":{"location":{"lat":44.1563812,"lng":12.3344569},"viewport":{"northeast":{"lat":44.15651290000001,"lng":12.3344707},"southwest":{"lat":44.1563373,"lng":12.3344155}}},"icon":"https://maps.gstatic.com/mapfiles/place_api/icons/generic_business-71.png","id":"8100a0280b0a3158f4269f15729b85ebaab64ab0","name":"Santerini Aldo E Annunzio S.S. Az. Agr.","place_id":"ChIJ7TLJLzu6LBMRs14-UveZu_4","reference":"CmRSAAAAShkavgsNJhU8ASFTruX_LR5ULTjJl_0o3JJrHP9x2QlCHW4syJnoIgz2tOhb5iWdMpaMiiZ0YDos2WNyoP2_gEVgV2WLipl_i2RwgQPPJD4vHuU3qkXAZbHUj5iU0xuTEhAg2FI1v1vqGtLXRdXM300pGhReZc01Bc-Roc6lu1FeQIhCI5u8IQ","types":["food","point_of_interest","establishment"]},{"formatted_address":"Via Rio Donegallia, 944, Provincia di Forlì-Cesena, Italy","geometry":{"location":{"lat":44.11166730000001,"lng":12.2744357},"viewport":{"northeast":{"lat":44.11174455,"lng":12.27448710000001},"southwest":{"lat":44.11164155000001,"lng":12.2742815}}},"icon":"https://maps.gstatic.com/mapfiles/place_api/icons/generic_business-71.png","id":"a6f0c606fb40ff29754d77b8cc1d2b15e00df54a","name":"Societa' Agricola Montaia S.S.","place_id":"ChIJ0TxFWaS8LBMR2BZUEIA15sE","reference":"CmRSAAAAAx3bPumDnsvEBiIX198m_VjQpFmxyThUH8JT1btjy-KU6jprJyRDbZK06lRD-ZpmbBW4UYN9oHKjY87XwIXumLKCrFw779qstP9UddLo0DBqyA8YOLFPHc16Xm6YCyNwEhDeNsYNz6SsFocYh_ft2X3xGhT-dD89PBSmZc-tsphsNv6D5OClMA","types":["food","point_of_interest","establishment"]},{"formatted_address":"Via S. Mauro, 2525, Cesena FC, Italy","geometry":{"location":{"lat":44.1325434,"lng":12.1934953},"viewport":{"northeast":{"lat":44.13267345000001,"lng":12.19351175},"southwest":{"lat":44.13250005,"lng":12.19344595}}},"icon":"https://maps.gstatic.com/mapfiles/place_api/icons/generic_business-71.png","id":"e704c0b42a5559c44211e2e9bb6ac1ca48ce3943","name":"Azienda Agricola Fungo Cesena Societa' Semplice","opening_hours":{"open_now":false,"weekday_text":[]},"place_id":"ChIJ-fnKnG-kLBMRY-NElH_6UyU","reference":"CmRRAAAAJ1p3vtElmXUniTwunr7DwAEyqv6UVCSqwMC1cSivb9rmqsh8icYjpGlHfGrqIA78cM177QV90xjzl5uadBtqZHmb8aV-yt5A01os7XU0eDs4inFCG-jKWvzjsMXke_WtEhAX3WtTMTSKMxlGxGziDZ7KGhQ8ip0t5PiVkOoz9ud9fhWzRHE0ug","types":["food","point_of_interest","establishment"]},{"formatted_address":"ቴሤሎ መንገድ, 4956, Cesena FC, Italy","geometry":{"location":{"lat":44.1008952,"lng":12.1420961},"viewport":{"northeast":{"lat":44.1009336,"lng":12.1421561},"southwest":{"lat":44.1008824,"lng":12.1419161}}},"icon":"https://maps.gstatic.com/mapfiles/place_api/icons/generic_business-71.png","id":"c6a43efc41c8546720e2f1ca930abc347ad8b71c","name":"Venturi Societa' Agricola Ss","place_id":"ChIJnSMPqnuhLBMR8lZH29fIZQY","reference":"CmRRAAAAAPdLQuQoBCce-91j1dNg9ApS7W6-hsVAMmbd0k5CEUrc_I8yttBKEsEGlL_Bep_AaHbsa22ObpimoH0wA9gLSskWwpLgsbNiIm3w9OVlXXtpVWtJNgKwC6appF6glTDkEhCgutb5BowYqGyVTWZ8IGw9GhTZtFTIDJ9NzKdBKGmyM4MP2mfnvQ","types":["food","point_of_interest","establishment"]}],"status":"OK"},"place":{"name":"Agricola Cesena S.s. ","address_1":"Vicinale Sala 1640","address_2":"47023 Cesena (FC)"}},{"google":{"html_attributions":[],"results":[],"status":"ZERO_RESULTS"},"place":{"name":"Agricola Morante Di Moreddu A. & Antenna V. (s.a.s.) ","address_1":"Via Boscone 6887","address_2":"47023 Cesena (FC)"}},{"google":{"html_attributions":[],"results":[{"formatted_address":"Via Terni, 35, Cesena FC, Italy","geometry":{"location":{"lat":44.098622,"lng":12.1962455},"viewport":{"northeast":{"lat":44.09873945,"lng":12.1962684},"southwest":{"lat":44.09858285,"lng":12.1961768}}},"icon":"https://maps.gstatic.com/mapfiles/place_api/icons/generic_business-71.png","id":"e3a974c27be76176384d8b30fce2d52836338f95","name":"Agricola Valle Del Savio Srl","place_id":"ChIJgaFwrryjLBMRXaJUF3aMIGI","reference":"CmRRAAAAJRIcQOYqB8rwYmUBDcwOwtUR9IZHgqyP2fO54gLwAMFg3jjufq0Calz-IyNQZvJrI1MEkpOkm-6kCN-tbWQuvnZwfPzdBTvau1E9V0zs_RfDGywJYehp5eJxVPRJOOMzEhCtHOg5y5cEUQrBuOQ6QdU_GhSRb8eUExDNVN-LLBQSr7KWmqpiyg","types":["food","point_of_interest","establishment"]}],"status":"OK"},"place":{"name":"Agricola Valle Del Savio Srl ","address_1":"Via Bantone 500","address_2":"47023 Cesena (FC)"}},{"google":{"html_attributions":[],"results":[],"status":"ZERO_RESULTS"},"place":{"name":"Albano Pietro","address_1":"Via Pontescolle 2017","address_2":"47023 Cesena (FC)"}},{"google":{"html_attributions":[],"results":[],"status":"ZERO_RESULTS"},"place":{"name":"Alessandri Fausto","address_1":"Via Medri Renato 1793","address_2":"47023 Cesena (FC)"}},{"google":{"html_attributions":[],"results":[{"formatted_address":"Via Renato Medri, 380, Cesena FC, Italy","geometry":{"location":{"lat":44.16960359999999,"lng":12.2903457},"viewport":{"northeast":{"lat":44.1696483,"lng":12.2903664},"southwest":{"lat":44.1694695,"lng":12.2903388}}},"icon":"https://maps.gstatic.com/mapfiles/place_api/icons/generic_business-71.png","id":"a919887c3451e2dcfe5b6a476d5cbf4fccf93f9c","name":"Amadori Cesare","place_id":"ChIJgeIEbo26LBMRaBRl5z9wh94","reference":"CmRSAAAAGUMNCdbCkYuF1Y1So2jtNTxUVH60jHrNyAHUDs1rg4RwfhbrXaVOGxX19-0cS1ogLqX0OEBzSRI3VFX_mwKHG9TtwC7OV7GhtSPyxbHYmH9qrTr6gUmqGzwc_PtgjnjXEhCz3iVyC62gDVqOaOT77z7rGhSJTKDM0jBLnS7yHldnCo4m4HDkmw","types":["food","point_of_interest","establishment"]}],"status":"OK"},"place":{"name":"Amadori Cesare","address_1":"Via Medri Renato 380","address_2":"47023 Cesena (FC)"}},{"google":{"html_attributions":[],"results":[{"formatted_address":"Via del Laghetto, 510, Provincia di Forlì-Cesena, Italy","geometry":{"location":{"lat":44.1179012,"lng":12.2063078},"viewport":{"northeast":{"lat":44.11803679999999,"lng":12.2063189},"southwest":{"lat":44.117856,"lng":12.2063041}}},"icon":"https://maps.gstatic.com/mapfiles/place_api/icons/generic_business-71.png","id":"38a1a6aef31d8e4cb422ea5958cad88739e69d5f","name":"Amadori Carmen","place_id":"ChIJF_ZKQ4ajLBMRSVsq5l_4Pls","reference":"CmRRAAAAWfvhya6HsxfvnbGXrNrV3FtjbPtB8JA__h1BGK87mDF0PgTd-wD6N28NN1OrTHdNJbEsQ4c9ChFi5IDr6w7uKcq20TwcGq_DE4Tu0JCxx5qZ-i4KwOh_bIJNMllXqm5_EhD5Sg7ngvPPXw0Q6rdAcpO2GhTvk7zYsVybgAZU034DYRUIAORd6w","types":["point_of_interest","establishment"]}],"status":"OK"},"place":{"name":"Amadori Carmen","address_1":"Via Del Laghetto 510","address_2":"47023 Cesena (FC)"}},{"google":{"html_attributions":[],"results":[{"formatted_address":"Via Terni, 257, 47522 Cesena FC, Italy","geometry":{"location":{"lat":44.12983000000001,"lng":12.21868}},"icon":"https://maps.gstatic.com/mapfiles/place_api/icons/shopping-71.png","id":"23a1816d6a8ca6841a120e5697fa65a135ceb6c8","name":"Ditta AMBROSINI Tarcisio","permanently_closed":true,"place_id":"ChIJDf-Sj4-kLBMRE0F1GmOey5A","reference":"CmRSAAAAlaOYuxr_L4axCbX3HQZJ_S1aqsTmXlywRKGqiZp9Oxa8BQrq3BZNSchupkm4tjxHRs1eFP8Woa7pGP2PNSqPaNPsLFBxqM7KeKftk1okwa-GccYJSIzjdve-WLJ5U-L8EhBgC725JLfxkMf23Rd870FIGhRjR4G5HFcpN82mP7Zk0103vHtg7A","types":["food","store","point_of_interest","establishment"]}],"status":"OK"},"place":{"name":"Ambrosini Tarcisio","address_1":"Via Savio 1950","address_2":"47023 Cesena (FC)"}},{"google":{"html_attributions":[],"results":[],"status":"ZERO_RESULTS"},"place":{"name":"Ass.lavoratori Agricoli Cesenati Soc.coop.arl. ","address_1":"Via Medri Renato 3314","address_2":"47023 Cesena (FC)"}},{"google":{"html_attributions":[],"results":[],"status":"ZERO_RESULTS"},"place":{"name":"Az.agricola Santarosa Srl ","address_1":"Via Scanello 650","address_2":"47023 Cesena (FC)"}},{"google":{"html_attributions":[],"results":[{"formatted_address":"Via Mariana, 5187, Cesena FC, Italy","geometry":{"location":{"lat":44.1835147,"lng":12.3128862},"viewport":{"northeast":{"lat":44.18364940000001,"lng":12.3128905},"southwest":{"lat":44.1834698,"lng":12.31287330000001}}},"icon":"https://maps.gstatic.com/mapfiles/place_api/icons/generic_business-71.png","id":"76306f8d0413e1d3a3b54dde26e77f4002cd6ed1","name":"Azienda Agricola Faeti Marco E Gabriele S.A.S.","place_id":"ChIJhX5Tk3i6LBMRobHfPLx_oAk","reference":"CmRRAAAA0H7u138CruCEwaQk85TBNIbYVKnt_DUS4t__NVMxZD6hnF3bA-a1vnLvJbrtEsx2tzaz-19qyRZKx06gT9r8qdNfCPptA3LUneCpBsM8s8WzDhEvRZ6t1mgCaf6K2cAxEhDXs88TKG6bjzKKWaGE9Qo-GhTQSOtzeTvharkyu_pxfTvTYg9Tvw","types":["food","point_of_interest","establishment"]}],"status":"OK"},"place":{"name":"Azienda Agricola Faeti Marco E Gabriele S.a.s. ","address_1":"Via Mariana 5187","address_2":"47023 Cesena (FC)"}},{"google":{"html_attributions":[],"results":[{"formatted_address":"Via Viola di Martorano, Cesena FC, Italy","geometry":{"location":{"lat":44.16291049999999,"lng":12.2546113},"viewport":{"northeast":{"lat":44.16295524999998,"lng":12.25462945},"southwest":{"lat":44.16277625000001,"lng":12.25460525}}},"icon":"https://maps.gstatic.com/mapfiles/place_api/icons/generic_business-71.png","id":"de0fa3a4ab21008df8721e04f88fa0c2d948ab49","name":"Azienda Agricola Savio Di Rusticali Enzo & C.","place_id":"ChIJUdjdji2lLBMRtOz6eTCZxss","reference":"CmRSAAAABmh8kLK6gDMWUj51gptdg2BJJIfQx5mqaaXNDjObP5Dai8djklDHNA2lfBm95epGkdCRVp2zIuJgiIoemKrFPtYlosj54BVNzrg1Ne3_SOb6Kn4TSELkxBpvzrRyyIXjEhAyzTpNgnsJtUlQ8wECCpRNGhQqbkJrUO5M04uRxUYOUWXSdI1myw","types":["food","point_of_interest","establishment"]}],"status":"OK"},"place":{"name":"Azienda Agricola Savio Di Rusticali Enzo & C. ","address_1":"Via Viola Di Martorano 517","address_2":"47023 Cesena (FC)"}},{"google":{"html_attributions":[],"results":[],"status":"ZERO_RESULTS"},"place":{"name":"Azienda Agricola Severi Primo Quinto Romano Ed Eredi Severi Adamo ","address_1":"Via Tranzano 438","address_2":"47023 Cesena (FC)"}},{"google":{"html_attributions":[],"results":[],"status":"ZERO_RESULTS"},"place":{"name":"Bagioli Aristide","address_1":"Via Violone 136","address_2":"47023 Cesena (FC)"}},{"google":{"html_attributions":[],"results":[],"status":"ZERO_RESULTS"},"place":{"name":"Battelli Battistini Severina","address_1":"Via Ficchio 701","address_2":"47023 Cesena (FC)"}},{"google":{"html_attributions":[],"results":[{"formatted_address":"Via Calcinaro, 1265, Cesena FC, Italy","geometry":{"location":{"lat":44.16856170000001,"lng":12.2706807},"viewport":{"northeast":{"lat":44.1686065,"lng":12.27069585},"southwest":{"lat":44.16842729999999,"lng":12.27067565}}},"icon":"https://maps.gstatic.com/mapfiles/place_api/icons/generic_business-71.png","id":"ddd9aade1b9fa598ae9b8307d77007f58f457d55","name":"Vivai Battistini Dr. Giuseppe International Plant Propagation","place_id":"ChIJh39qQ8u6LBMRUyTvz3f-06o","reference":"CmRSAAAAIevv6V1XcNL_yu-m7A5jrto-EGELQwczD4Prjw39_kFfRLdIf4lj6JIXBLgBQUyJya7vaQs2YW1lEosdAOfX0FycyzG6qmZW-y3ByC0wGG6f9aJVAA0pflMZuqiZNL9xEhB0A3xWWjl2hverE_XDGk2MGhTz-vsZJ7UiNdKjVI4Cos02-EUkWA","types":["food","point_of_interest","establishment"]}],"status":"OK"},"place":{"name":"Battistini Giuseppe","address_1":"Via Emilia 3551","address_2":"47023 Cesena (FC)"}},{"google":{"html_attributions":[],"results":[{"formatted_address":"Via Ravennate, 1500, Cesena FC, Italy","geometry":{"location":{"lat":44.1609574,"lng":12.2432464},"viewport":{"northeast":{"lat":44.16096104999998,"lng":12.2435664},"southwest":{"lat":44.16095404999999,"lng":12.2422864}}},"icon":"https://maps.gstatic.com/mapfiles/place_api/icons/generic_business-71.png","id":"42f311bb320beccba02f0e684a0a14e5316fe762","name":"Battistini Vivai","opening_hours":{"open_now":false,"weekday_text":[]},"photos":[{"height":2448,"html_attributions":["<a href=\"https://maps.google.com/maps/contrib/103055014175896596243/photos\">Battistini Vivai</a>"],"photo_reference":"CoQBdwAAAIEfIfwQx94e3xeuoZ6c1iul3pm8W5pC8mekSYOBTZh_Tb1OO2W0kFLMMW2zzlpAeRGMZT63TR966p5185Uw8RyTrOfadkc53PSmLs_GVBpKn9VdBF2GhOIZwKemQMGhlqUTFSlBM3brhgC4xlEVQ3rl6GsbRBqyW4iHrszjEdSDEhDgmlFBsD1ccUgQPKFCaxEUGhRlXTA-wB5_0bkMcbFHhtvGg1_VGw","width":3264}],"place_id":"ChIJU4AdgyWlLBMR5i1aesKqc50","rating":4.3,"reference":"CmRSAAAA3eR31JiJ0jaO4mKKdnP1dW4rOoCcd2Irwq6mV8v9raiboy7jevPBKdCt6gJZSNciCyI0PllsbswaIsdPKYXKxISpo7hZxT9rEJMrtSwNEx5x7QAwkgC3O47KBwqV99E4EhCa6GiqsFIhgrjsAfg1nGIMGhQzDxf7vnYMXCE_WAgjv8cz2VhrRg","types":["food","point_of_interest","establishment"]},{"formatted_address":"Via Calcinaro, 1265, Cesena FC, Italy","geometry":{"location":{"lat":44.16856170000001,"lng":12.2706807},"viewport":{"northeast":{"lat":44.1686065,"lng":12.27069585},"southwest":{"lat":44.16842729999999,"lng":12.27067565}}},"icon":"https://maps.gstatic.com/mapfiles/place_api/icons/generic_business-71.png","id":"ddd9aade1b9fa598ae9b8307d77007f58f457d55","name":"Vivai Battistini Dr. Giuseppe International Plant Propagation","place_id":"ChIJh39qQ8u6LBMRUyTvz3f-06o","reference":"CmRSAAAAiGIH-BnVr0yaMCACvMoqGHJcTWsA3jA57RqpOxxeArRD6vS7XsXzMKSbnH-0QIHK4Ct35bM6padbEg8OguA8N8bo8GOXPyXubKDYv3fgHTCTrjP4lNfI6fRLHCUCcKFEEhDAAEtiImdPoZ6gHJAEn7WxGhRF4UUjCkipzI8hIkRIdZ1H8NaBAA","types":["food","point_of_interest","establishment"]}],"status":"OK"},"place":{"name":"Battistini Vivai Piante ","address_1":"Via Ravennate 1550","address_2":"47023 Cesena (FC)"}},{"google":{"html_attributions":[],"results":[],"status":"ZERO_RESULTS"},"place":{"name":"Belletti Silvano","address_1":"Via Calabria 5440","address_2":"47023 Cesena (FC)"}},{"google":{"html_attributions":[],"results":[],"status":"ZERO_RESULTS"},"place":{"name":"Bernabini Edmondo","address_1":"Via Branchise 741","address_2":"47023 Cesena (FC)"}},{"google":{"html_attributions":[],"results":[],"status":"ZERO_RESULTS"},"place":{"name":"Bertini Fiorangela","address_1":"Via Luzzena 1225","address_2":"47023 Cesena (FC)"}},{"google":{"html_attributions":[],"results":[{"formatted_address":"Corso Giuseppe Mazzini, Cesena FC, Italy","geometry":{"location":{"lat":44.13775589999999,"lng":12.2444681},"viewport":{"northeast":{"lat":44.1378481,"lng":12.24455285},"southwest":{"lat":44.13771209999999,"lng":12.24434785}}},"icon":"https://maps.gstatic.com/mapfiles/place_api/icons/generic_business-71.png","id":"b2c643296767de018e4baaad6774dfc1eafa1fc9","name":"Bianchi Sergio","place_id":"ChIJux8lWcikLBMR9RhRYyghO7o","reference":"CmRSAAAA4SFMK1jIKeIpGpvQOEiB3cnZ9YFhjilxF3rJWUEyqLGySGJXdYsm-QJ6c04rDVb4ULt3TaXcNb8iF16jYYeFyHijugLXXKV_gc73MQoi1x7ZFi_le09pMkDhF_LSNakUEhCdnoJZKaxBl51oQ8dxzOUYGhQ_pBjehRrgWLbww7cMTFs5nUdKOg","types":["lawyer","point_of_interest","establishment"]},{"formatted_address":"Via Giuseppe Garibaldi, 19, Provincia di Forlì-Cesena, Italy","geometry":{"location":{"lat":44.1195,"lng":12.3378386},"viewport":{"northeast":{"lat":44.1196125,"lng":12.3378956},"southwest":{"lat":44.1194625,"lng":12.3378196}}},"icon":"https://maps.gstatic.com/mapfiles/place_api/icons/generic_business-71.png","id":"fb16dd18cf9f148256e2d4c470b2b72b19bd3f2d","name":"Agenzia Pratiche Automobilistiche Mb Di Bianchi Matteo","place_id":"ChIJATvbuOW7LBMRV55Fut8e580","reference":"CmRSAAAA-xpXKxiKv411JMLznbermGJvZYYSQTUsCg1MlzI1WXJdWIA_pPMRafhNBJm4LwtMXQM9MrM9ybb2evtFNf0eWxj0iCEfoJaY1IBKEYNtmhnRN9hciXXTWWvCsLuq_-hdEhCdLhaJ7G_ZSYH6ilf-JQbhGhSrimaX9QsPDbiDX3Srd3E97WTNcg","types":["point_of_interest","establishment"]}],"status":"OK"},"place":{"name":"Bianchi Giuseppe","address_1":"Via Melona 6050","address_2":"47023 Cesena (FC)"}},{"google":{"html_attributions":[],"results":[],"status":"ZERO_RESULTS"},"place":{"name":"Bocchini Ubaldo","address_1":"Via Giotto 97","address_2":"47023 Cesena (FC)"}},{"google":{"html_attributions":[],"results":[],"status":"ZERO_RESULTS"},"place":{"name":"Brunetti Fabrizio","address_1":"Via Dugaria 250","address_2":"47023 Cesena (FC)"}},{"google":{"html_attributions":[],"results":[],"status":"ZERO_RESULTS"},"place":{"name":"Buratti Eugenio","address_1":"Via Sogliano 500","address_2":"47023 Cesena (FC)"}},{"google":{"html_attributions":[],"results":[{"formatted_address":"Via Sogliano, 47521 Cesena FC, Italy","geometry":{"location":{"lat":44.1389317,"lng":12.2563179},"viewport":{"northeast":{"lat":44.1389362,"lng":12.2564493},"southwest":{"lat":44.1389302,"lng":12.2562741}}},"icon":"https://maps.gstatic.com/mapfiles/place_api/icons/generic_business-71.png","id":"d1c880aa4cf7cff7d7a681708983829df1707a05","name":"Buratti Agostino","place_id":"ChIJa6DHYDO7LBMRuafTmMJCtPo","reference":"CmRSAAAA2HgNa-D9-kbWnK0D0CP5B37JD6xFzGyAwnzHEtqZAtFBnCnTwNW2z7Qak6UnnRSekf8xOahZnQL5taBoQh1qVNeE2NWMOtF7adGP1ZlrpDL73a82zEcKdKY28mQufI9bEhBKPAJuLzKwf7wdquWZfvxaGhSOPFJIs-qSfDjrZN8bjNmvDhBJEg","types":["point_of_interest","establishment"]}],"status":"OK"},"place":{"name":"Buratti Agostino","address_1":"Via Sogliano 364","address_2":"47023 Cesena (FC)"}},{"google":{"html_attributions":[],"results":[],"status":"ZERO_RESULTS"},"place":{"name":"Burzacchi P.a. Tiziano ","address_1":"Via Ravennate 3419","address_2":"47023 Cesena (FC)"}},{"google":{"html_attributions":[],"results":[],"status":"ZERO_RESULTS"},"place":{"name":"C.o.f. Mercato (s.r.l.) ","address_1":"Via Dismano","address_2":"47023 Cesena (FC)"}},{"google":{"html_attributions":[],"results":[],"status":"ZERO_RESULTS"},"place":{"name":"Campana Aldo","address_1":"Via Faccini 1190","address_2":"47023 Cesena (FC)"}},{"google":{"html_attributions":[],"results":[],"status":"ZERO_RESULTS"},"place":{"name":"Canali Ricciardo","address_1":"Via Raggi Della Torre 2250","address_2":"47023 Cesena (FC)"}},{"google":{"html_attributions":[],"results":[],"status":"ZERO_RESULTS"},"place":{"name":"Canducci Biagio","address_1":"Sobb Comandini Federico 156","address_2":"47023 Cesena (FC)"}},{"google":{"html_attributions":[],"results":[{"formatted_address":"Via Luigi Carlo Farini, 731, Cesena FC, Italy","geometry":{"location":{"lat":44.1393225,"lng":12.2284129},"viewport":{"northeast":{"lat":44.13940095,"lng":12.2285659},"southwest":{"lat":44.13929635,"lng":12.2283619}}},"icon":"https://maps.gstatic.com/mapfiles/place_api/icons/generic_business-71.png","id":"4f1f3f9d7cfc3f22b3a090b4577c200e6f993b31","name":"Walter Casadei Impresa Di Servizi Snc","place_id":"ChIJO9__B-ukLBMRNK_aI5S5znc","reference":"CmRRAAAAo0fy4GasyWzrG0jtq1IuiU6QHCBBrYMZ3MEHCaliXB9HRQU6FIveEYsJkkiUQDNO32wkJlrfDayBVoyRjXdoFfTpmHmV3-ytsTeeLR4xsprUuniYWLehK-ZS9SGulTrDEhCKvR6thrQZSvV0ZtGFW8HiGhTjgvWMqjhKAMp71fwAesKrQTO3Dg","types":["point_of_interest","establishment"]}],"status":"OK"},"place":{"name":"Casadei Walter","address_1":"Via Montiano 3560","address_2":"47023 Cesena (FC)"}},{"google":{"html_attributions":[],"results":[],"status":"ZERO_RESULTS"},"place":{"name":"Casalboni Renato","address_1":"Via Pozzo 2345","address_2":"47023 Cesena (FC)"}},{"google":{"html_attributions":[],"results":[],"status":"ZERO_RESULTS"},"place":{"name":"Castorri Oliviero","address_1":"Via Fornace 485","address_2":"47023 Cesena (FC)"}},{"google":{"html_attributions":[],"results":[],"status":"ZERO_RESULTS"},"place":{"name":"Cofrutt Di Rocci & Zincati (s.n.c.) ","address_1":"Via Ravennate 900","address_2":"47023 Cesena (FC)"}},{"google":{"html_attributions":[],"results":[],"status":"ZERO_RESULTS"},"place":{"name":"Comandini Agostino","address_1":"Via Settecrociari 1484","address_2":"47023 Cesena (FC)"}},{"google":{"html_attributions":[],"results":[],"status":"ZERO_RESULTS"},"place":{"name":"Confederazione Italiana Agricoltori -cia ","address_1":"Via Rasi Spinelli 160","address_2":"47023 Cesena (FC)"}},{"google":{"html_attributions":[],"results":[{"formatted_address":"Via Raffaello Lambruschini, 195, Cesena FC, Italy","geometry":{"location":{"lat":44.13332,"lng":12.2708},"viewport":{"northeast":{"lat":44.13343555,"lng":12.27086495},"southwest":{"lat":44.13297334999999,"lng":12.27077835}}},"icon":"https://maps.gstatic.com/mapfiles/place_api/icons/generic_business-71.png","id":"0010532634930ee9c109a70a02de0fd7478f87a8","name":"Consorzio Di Bonifica Della Romagna","place_id":"ChIJC9uhvji7LBMRIg2ZtPTPhUw","reference":"CmRRAAAAj_W-SRjtCYbRG-OMZdsBK48Ec1SHuT4XxmDFP03SWr_o8uRHKkT2CWqn0olXnD_uiOxeKqrjm6WfKMRLceNx3BIeoUu1lUdwdNpUFTuEqEvFAPs23qGfAxPRFxIhBc_4EhBxgXpGyz7HXm7NMaHI-gzFGhSYGB8Nb4TlkE2MdJmbDgS3FHYWTA","types":["point_of_interest","establishment"]}],"status":"OK"},"place":{"name":"Consorzio Di Bonifica Savio E Rubicone ","address_1":"Via Lambruschini 195","address_2":"47023 Cesena (FC)"}},{"google":{"html_attributions":[],"results":[{"formatted_address":"Via Raffaello Lambruschini, 195, Cesena FC, Italy","geometry":{"location":{"lat":44.13332,"lng":12.2708},"viewport":{"northeast":{"lat":44.13343555,"lng":12.27086495},"southwest":{"lat":44.13297334999999,"lng":12.27077835}}},"icon":"https://maps.gstatic.com/mapfiles/place_api/icons/generic_business-71.png","id":"0010532634930ee9c109a70a02de0fd7478f87a8","name":"Consorzio Di Bonifica Della Romagna","place_id":"ChIJC9uhvji7LBMRIg2ZtPTPhUw","reference":"CmRRAAAAUhLN9nnbL3aW9Y_B3m7OggIXKaRbvi-bCRy0oe-MuS17bUwJQLcoUdsICF_L8DsXg8TfZqq6Q7XqdzZ053VB_0RjoCOa82E82hl6Y40qlq_07Ooo54NXjiH7puI2WHrIEhA1HBoG6EDYGGtz_wLlKCr_GhQk5BMRjTYXSTdiU_Ao9sGEvcnsaA","types":["point_of_interest","establishment"]}],"status":"OK"},"place":{"name":"Consorzio Di Bonifica Savio E Rubicone ","address_1":"Via Pisignano","address_2":"47023 Cesena (FC)"}},{"google":{"html_attributions":[],"results":[],"status":"ZERO_RESULTS"},"place":{"name":"Consorzio Produttori Bionature - Soc. Coop. A R.l. ","address_1":"Via Zavaglia 465","address_2":"47023 Cesena (FC)"}},{"google":{"html_attributions":[],"results":[{"formatted_address":"Via Guarneri, 497, 47521 Cesena FC, Italy","geometry":{"location":{"lat":44.1277981,"lng":12.2776164},"viewport":{"northeast":{"lat":44.12787085,"lng":12.2776778},"southwest":{"lat":44.12757985,"lng":12.2774322}}},"icon":"https://maps.gstatic.com/mapfiles/place_api/icons/generic_business-71.png","id":"9f800b56fd1940e4d9ec342e4bd866356874ffce","name":"C.E.M. Cooperativa Esercenti Macellai (S.R.L.)","place_id":"ChIJtXak40G7LBMRdIO3wIgm5bo","reference":"CmRSAAAA6Lo82VPEUX7qIiyGMOxKPxTSCLm3QSUXNVT4YsYNnxomMyETtPPTrxlkj9MI8Bd3qD0PxL0QZEDBNMiLvBAPMlrIcbJz665ex4h8HbC6vdKla5PPfon5Tj21_72IzdtIEhD2ZyRrDPzvw_iJSCymeuqkGhRlelsZidSRcJBZjLH0TlvYFjcDFA","types":["point_of_interest","establishment"]},{"formatted_address":"Piazzale Sanguinetti, 42, 47521 Cesena FC, Italy","geometry":{"location":{"lat":44.14425879999999,"lng":12.24989},"viewport":{"northeast":{"lat":44.1445252,"lng":12.25002275},"southwest":{"lat":44.14416999999999,"lng":12.24984575}}},"icon":"https://maps.gstatic.com/mapfiles/place_api/icons/generic_business-71.png","id":"699c9014b16144f84030fe9987d4004d12b0c199","name":"Coop.Sociale C.I.L.S.","place_id":"ChIJaUP9G9KkLBMRJ0JWxUo5ozU","reference":"CmRRAAAAVwhsBYSMwmwQq6C7TevBq6yC3JrHmeo75dqbame2NEz-dBRpcDw0z4iR0yukvxcagRN8UGWbC-f1JZcCCW_yBuFlGxLp0naGe2GEr-NzMhI3HNWMW5ChgxfZ0LMUKvsfEhBnI6lnihap4_qhvWjATmLwGhS-aM2L_FRHLdLyvlJGLYFKyGxIVg","types":["point_of_interest","establishment"]},{"formatted_address":"Via Battuti Rossi, 6/a, Forlì FC, Italy","geometry":{"location":{"lat":44.22810499999999,"lng":12.0376039},"viewport":{"northeast":{"lat":44.22846034999999,"lng":12.0380128},"southwest":{"lat":44.22798654999998,"lng":12.0363772}}},"icon":"https://maps.gstatic.com/mapfiles/place_api/icons/generic_business-71.png","id":"275dc4fb151803c7a811dac4e4f0ca0ee5106971","name":"Confcooperative Forlì-Cesena","opening_hours":{"open_now":false,"weekday_text":[]},"place_id":"ChIJVVFt8JlXKxMRLlocgCZSPJo","reference":"CmRSAAAAhbKspmJNRB6eY83ZOsS4srfow-zZnz3NcGjVHq1k5J56-Ph9koXTaLbQjEG5KMAc9ZnCitilb9KCy7ZSB3hNnPnUYn4tNQ-yUC_Mq8_6wrvemuHSIafrFZurT_u6Mb9GEhBZvg0ESgKeDTMdK8LaP4bYGhS-OG-Fp4tHHUzmv9zOW1dptQmWFQ","types":["point_of_interest","establishment"]},{"formatted_address":"Via della Cooperazione, 400, 47522 Cesena FC, Italy","geometry":{"location":{"lat":44.1833176,"lng":12.2118965},"viewport":{"northeast":{"lat":44.1836537,"lng":12.2119061},"southwest":{"lat":44.1823093,"lng":12.2118933}}},"icon":"https://maps.gstatic.com/mapfiles/place_api/icons/generic_business-71.png","id":"3e26f76971eac2bb91f7e3f5c64ea71273e1697e","name":"Apofruit Italia Soc. Coop. Agricola","opening_hours":{"open_now":false,"weekday_text":[]},"photos":[{"height":1872,"html_attributions":["<a href=\"https://maps.google.com/maps/contrib/115823811961155646561/photos\">Luca Ghinassi</a>"],"photo_reference":"CoQBdwAAAPshMg10G6-XV1gDcZVuwXNxAhWimPVtXpzLqcEvS1zGimLeoUepPvzJ3OdL1llqcKDngnxAv2N4oCcUAneWYCoziA9lLH35SqM-dF5AFGijKQU3nhM9_Puh6O8FVWqSuL26vQjXN2LF_Chdm_SXSQBiGbVzbf-Aizu_Tx8lF8EHEhA-dZBvJ6SHm-ir3KUWNkwsGhRiGqA8U19ulwWc_Suec0x6f8aOew","width":3328}],"place_id":"ChIJHV8Q5XalLBMRec2GkOVTnPA","rating":4.4,"reference":"CmRSAAAAzfeuzBVuCH6yCnThQHoE1tlN24YlWZhotB_oTAvcGebKrybDgNJJiefiZIsT6qo02rPFiq2UkInV48vdaN10EyVULH91u5KuF1xSd2lJ-us4Mb1WmVk8vj6uL_KZCKY6EhCj03DuJX4-7fWFpgkMsFuVGhR2hQW1ujbNTXRr7r2hbLFLOU13tA","types":["food","point_of_interest","establishment"]}],"status":"OK"},"place":{"name":"Cooperativa C.o.m. Cesena (s.r.l.) ","address_1":"Via Dismano 4001","address_2":"47023 Cesena (FC)"}},{"google":{"html_attributions":[],"results":[{"formatted_address":"Via Diegaro - Pievesestina, 1680, Cesena FC, Italy","geometry":{"location":{"lat":44.17258289999999,"lng":12.2098827},"viewport":{"northeast":{"lat":44.17268804999999,"lng":12.2099219},"southwest":{"lat":44.17254784999999,"lng":12.2097651}}},"icon":"https://maps.gstatic.com/mapfiles/place_api/icons/generic_business-71.png","id":"5712ed8219fa8758f7f95dc47cb610b0853ded35","name":"Danesi Bruno","permanently_closed":true,"place_id":"ChIJmf-qTaelLBMR9W1iF8rwJN8","reference":"CmRSAAAAWu4pHXeT_oJei-9r4o4CzFpLt4atSxbmdP1KhW0GLGMrIPwHKN-jhgTEcaaWxqMdYg1AL7HU9H79umlxiNtFdBVPw_con56T7N6FFIswitMPpFYCaWCaovEqGQ2L2jiEEhBN_jH0en6gm2ZvGLv2JdoDGhTgs9zazW48kQhde0V2wHsrKzJE6w","types":["point_of_interest","establishment"]}],"status":"OK"},"place":{"name":"Danesi Bruno","address_1":"Via Diegaro Pievesestina 1680","address_2":"47023 Cesena (FC)"}},{"google":{"html_attributions":[],"results":[{"formatted_address":"Via Fossalta, 47522 Cesena FC, Italy","geometry":{"location":{"lat":44.18904599999999,"lng":12.2097682},"viewport":{"northeast":{"lat":44.18905004999999,"lng":12.20984965},"southwest":{"lat":44.18903385,"lng":12.20952385}}},"icon":"https://maps.gstatic.com/mapfiles/place_api/icons/generic_business-71.png","id":"e5f9089c6570d357ed06c47d89fbaf77ffe4a297","name":"Dei S.A.S. Di Piccinini Guerrino & C.","place_id":"ChIJ47Ptj3-vLBMRD1YiA43vaBo","reference":"CmRRAAAAH_7rZY7rq4Fzk9mOpqgF-8ojRli2bGtYJddGBgV-PPlE3G0PcZPqE01UZIcqs7HAjm1teqW59CD0dEmtU4pQvJCZKGTWrkIPjFTKTuzZdp9LPon1OMHpTNEnWPR0IQmsEhCThT1zwJxM3ZWIQ-QzJBNqGhTJMA6coR8McExGZM_iHyCm2TBy0g","types":["food","point_of_interest","establishment"]}],"status":"OK"},"place":{"name":"Dei S.a.s. Di Piccinini Guerrino & C. ","address_1":"Via Fossalta 3865","address_2":"47023 Cesena (FC)"}},{"google":{"html_attributions":[],"results":[{"formatted_address":"Via Fossalta, 47522 Cesena FC, Italy","geometry":{"location":{"lat":44.18904599999999,"lng":12.2097682},"viewport":{"northeast":{"lat":44.18905004999999,"lng":12.20984965},"southwest":{"lat":44.18903385,"lng":12.20952385}}},"icon":"https://maps.gstatic.com/mapfiles/place_api/icons/generic_business-71.png","id":"e5f9089c6570d357ed06c47d89fbaf77ffe4a297","name":"Dei S.A.S. Di Piccinini Guerrino & C.","place_id":"ChIJ47Ptj3-vLBMRD1YiA43vaBo","reference":"CmRRAAAAyFnohHtiSmzDJqS0--_favmqLK7ou5svVQpJobZ-vuXCPW5bdJhCJ7OggWayuWY1GWrfzSH1RakVlMDilrKDiwN6bddOtqu9qlSOs0fa8W22rGggsUDAoS_Y8zZq_bRsEhD53VY7u4M4PaZkQUCCh8y3GhRng_FhTEYskInKTThnM875baBZgg","types":["food","point_of_interest","establishment"]}],"status":"OK"},"place":{"name":"Dei S.a.s. Di Piccinini Guerrino & C. ","address_1":"Via Dismano 4001","address_2":"47023 Cesena (FC)"}},{"google":{"html_attributions":[],"results":[],"status":"ZERO_RESULTS"},"place":{"name":"Del Vecchio Franco","address_1":"Via Marianna 6679","address_2":"47023 Cesena (FC)"}},{"google":{"html_attributions":[],"results":[{"formatted_address":"Via Tessello 4236, 47522 Cesena FC, Italy","geometry":{"location":{"lat":44.09633799999999,"lng":12.155213}},"icon":"https://maps.gstatic.com/mapfiles/place_api/icons/lodging-71.png","id":"3d3db6bb4ad96240792b360ae9c0746fdf4149e4","name":"Agriturismo Lugarara","opening_hours":{"open_now":false,"weekday_text":[]},"photos":[{"height":1365,"html_attributions":["<a href=\"https://maps.google.com/maps/contrib/101819878179190942321/photos\">Agriturismo Lugarara</a>"],"photo_reference":"CoQBcwAAAEP212VK-HZ-R3MQGHECMvDRpyOFXoaAedqLfHaM2NmZOsWIVPSMx9tENJrqQA1KJEFDnVUznlihOBZVNZfPguY6Y90Vm60AePlSue0cByLKjCBUEVXRMTGrLdwIhkGGhy1lYWqNwNn4vFbdf-D0Vhlxy4rhZzTdB9oJChOXDX5cEhBO92gUniw_LyDgvoRQOCc0GhTBqKQ8YoOnu5QFNZrrCpi8mbNEHA","width":2048}],"place_id":"ChIJL0wrG3uhLBMRgExQhcylnLk","reference":"CmRSAAAAauh_SlaJOzDrK2P8j6Goxu49yMc8r80UlWtIs8DzAGeLZxl7FOibPChpp-NwTqjK8WeGJLBl5hUKvyzjolXR_YoIXU6sPJsU9Q0mqeq44t9oMmlZ9gZyatWVlP_NvMQyEhCatZTbX7s9f1rDwXKdGw-xGhQNLOjKdbf7S6S3hvtwG0vEpV_jjQ","types":["lodging","point_of_interest","establishment"]}],"status":"OK"},"place":{"name":"Dondini Tiziana","address_1":"Via Tessello 4236","address_2":"47023 Cesena (FC)"}},{"google":{"html_attributions":[],"results":[{"formatted_address":"Via Santa Rita da Cascia, Cesena FC, Italy","geometry":{"location":{"lat":44.14958389999999,"lng":12.2383816},"viewport":{"northeast":{"lat":44.15029295,"lng":12.23862895},"southwest":{"lat":44.14934754999998,"lng":12.23829915}}},"icon":"https://maps.gstatic.com/mapfiles/place_api/icons/generic_business-71.png","id":"49e635d6287ed696e4e66e2a1e4a2959f0df939a","name":"Esportazione Importazione Agricola Romagnola Srl","place_id":"ChIJpRUa4tukLBMR8XKL7Oo4QbM","reference":"CmRSAAAASASiBEhSny4F2TeMS7VQ-UPO7muoON6I1fXnA-K5PiaTtJS0SdqZRU5pPoN2RNi3cyxjsKggs-xkTfaeU_EA38sAmV3WFCdjZ6iDov3mxjnxhIP8-fah7IsAaNNJfwLOEhAVRkeZgEHaPTot52RjvSUqGhQX_thPaNryQhQRkjoKBGqEvkdVJQ","types":["food","point_of_interest","establishment"]}],"status":"OK"},"place":{"name":"E.i.a.r. Srl ","address_1":"Via S. Rita Da Cascia 135","address_2":"47023 Cesena (FC)"}},{"google":{"html_attributions":[],"results":[{"formatted_address":"Via Dismano, 4001, Cesena FC, Italy","geometry":{"location":{"lat":44.17996610000001,"lng":12.218062},"viewport":{"northeast":{"lat":44.17996769999999,"lng":12.21814945},"southwest":{"lat":44.1799645,"lng":12.21797405}}},"icon":"https://maps.gstatic.com/mapfiles/place_api/icons/generic_business-71.png","id":"42a2b4d974186b43cbabbcbb5bcbcb9c29a2ccfa","name":"F.Lli Orlandi Enrico E Carlo & C. Sas","place_id":"ChIJpwFOqXGlLBMRNxM3e4BN_Aw","reference":"CmRRAAAAB7u0n-ZDq3BBs7TxGPOjJGZ7kQ3N8LVXkRUy4WYrBXnDqwpUqYwxUMRIDa1vpdG0HVZ-FeH4BAy7oLvVgCk8AfqNxiCWpZMtAm18ycPnSZ9hoofJQrJvh18woViwi1QaEhDJq04yIq6QB3cUnleOcMVxGhT6RM7Qu90dQxzgq3xgsjjxGXFG0Q","types":["food","point_of_interest","establishment"]}],"status":"OK"},"place":{"name":"F.lli Orlandi Enrico E Carlo & C. Sas ","address_1":"Via Dismano 4001","address_2":"47023 Cesena (FC)"}},{"google":{"html_attributions":[],"results":[{"formatted_address":"Strada Provinciale 70i, Provincia di Catania, Italy","geometry":{"location":{"lat":37.446543,"lng":15.01468}},"icon":"https://maps.gstatic.com/mapfiles/place_api/icons/generic_business-71.png","id":"cdb68b827eccd655bb7ce6802eecd3bf5379e740","name":"Fratelli Tosto s.r.l - Ingrosso","opening_hours":{"open_now":false,"weekday_text":[]},"photos":[{"height":540,"html_attributions":["<a href=\"https://maps.google.com/maps/contrib/104647621695201926619/photos\">Fratelli Tosto s.r.l - Ingrosso</a>"],"photo_reference":"CoQBcwAAAFnhp_oYWtcwL0CPTIFXq9XUb2LCdeXUG2LKDNeCelkeBtMrPhnDAk3AXqMPJwWMY-QjRAj2gOeYQjpaOw3c5_bj80OCCVJMpLIm8ZYaL-6eG3xFebCJY8F40vbQRSRTLJy0-KiCb4Jn740TZD89UcLX8ItXhsxwolh7qDON4KeHEhCSYsm2rAANmYx5HAVGrH65GhRF56DZajaJ8v5p5LDb6ubrcbeKag","width":960}],"place_id":"ChIJdQ_8xnDiExMRz7JXMdT-XH0","reference":"CmRRAAAA97EGSw08xFIG8nv7nQRA1dDLfPEVMd_4wxFRWi11Quo1FsETtC6NzqLFjY_cSKhC-9awn2wu9d1h0sHClstij1nCDq9sshv2YVhXUD0oPW3JeuNxzVZxAgJh5i83_jEUEhBxR7IExfvIBDQcv28WakkyGhTquC0WcnEKMMbd1n1AChjVwC5i_Q","types":["point_of_interest","establishment"]}],"status":"OK"},"place":{"name":"F.lli Tosti (s.r.l.) ","address_1":"Via Cavalcavia 855","address_2":"47023 Cesena (FC)"}},{"google":{"html_attributions":[],"results":[],"status":"ZERO_RESULTS"},"place":{"name":"Fabbri Cesarino","address_1":"Via Melona 1080","address_2":"47023 Cesena (FC)"}},{"google":{"html_attributions":[],"results":[],"status":"ZERO_RESULTS"},"place":{"name":"Fabbri Adriana","address_1":"Vlo Fiume 205","address_2":"47023 Cesena (FC)"}},{"google":{"html_attributions":[],"results":[{"formatted_address":"Via Federico Caffe', Calisese, FC 47023, Italy","geometry":{"location":{"lat":44.11767,"lng":12.30669}},"icon":"https://maps.gstatic.com/mapfiles/place_api/icons/generic_business-71.png","id":"87ec0efcc9cb8d0710a5e12664aba2dd935a7d0f","name":"Fabbri E Sacchetti Di Fabbri Alieto & C. (S.N.C.)","place_id":"ChIJM-YC73y8LBMRG4fVpUWz8kQ","reference":"CmRRAAAAwf_XCQNLDBauJdsIqFUsv0nPiz4IuvvbWoNOOgXb_SkjO5eSC-XgKJnILPp24bBWLajieAqrJcQQuiQlV_iCesaNqArzVhZ0N7-ye69VLvFNu2Kh_7qHhTBTkdDLc4RhEhC2mLSnefZy6BpMKoiECjGHGhSH0vI55lS0BdAGEonf3Dh9EGTI0w","types":["food","point_of_interest","establishment"]}],"status":"OK"},"place":{"name":"Fabbri E Sacchetti Di Fabbri Alieto & C. (s.n.c.) ","address_1":"Via Cavecchia 1437","address_2":"47023 Cesena (FC)"}},{"google":{"html_attributions":[],"results":[],"status":"ZERO_RESULTS"},"place":{"name":"Fabbri Romeo & Figlio Di Fabbri Ageo ","address_1":"Via S. Carlo 603","address_2":"47023 Cesena (FC)"}},{"google":{"html_attributions":[],"results":[],"status":"ZERO_RESULTS"},"place":{"name":"Ferri & Pracucci (s.n.c.) ","address_1":"Via Malanotte 90","address_2":"47023 Cesena (FC)"}},{"google":{"html_attributions":[],"results":[],"status":"ZERO_RESULTS"},"place":{"name":"Foschi Giuliano","address_1":"Via Masiera Ii 850","address_2":"47023 Cesena (FC)"}},{"google":{"html_attributions":[],"results":[{"formatted_address":"Via Longiano, 64, Cesena FC, Italy","geometry":{"location":{"lat":44.1411475,"lng":12.2578704},"viewport":{"northeast":{"lat":44.14115505,"lng":12.25793215},"southwest":{"lat":44.14112485,"lng":12.25768515}}},"icon":"https://maps.gstatic.com/mapfiles/place_api/icons/generic_business-71.png","id":"9b6667ecf0b57d6e118cd3c9a33e1b0c6e03aff9","name":"Gattamorta Giorgio","place_id":"ChIJqxTiijK7LBMRJsl0mJOABvo","reference":"CmRSAAAAgbxnweUei4qJOwvJoMkIXa1rgCn9RMhHznRoRZ0gZm0TD2rhod5aTCYT8n2f_-35S0jRNmk0pVe7GlAN26O6-XEwjB7iDdpm6esMpnSzh_NIQhiF6NepwRX5IPe1npwUEhA4A5FO-JdMgPRzBc-kshKiGhRz8LJhMN9PhZfkOU0I0gAHWwwXtQ","types":["food","point_of_interest","establishment"]}],"status":"OK"},"place":{"name":"Gattamorta Giorgio ","address_1":"Via Longiano 64","address_2":"47023 Cesena (FC)"}},{"google":{"html_attributions":[],"results":[],"status":"ZERO_RESULTS"},"place":{"name":"Gazzoni Giovanni","address_1":"Via Cervese 1249","address_2":"47023 Cesena (FC)"}},{"google":{"html_attributions":[],"results":[],"status":"ZERO_RESULTS"},"place":{"name":"Gentili Agostino","address_1":"Via Tessello 5395","address_2":"47023 Cesena (FC)"}},{"google":{"html_attributions":[],"results":[{"formatted_address":"Corso Giuseppe Mazzini, 13, 47521 Cesena FC, Italy","geometry":{"location":{"lat":44.13788530000001,"lng":12.2442456},"viewport":{"northeast":{"lat":44.13792855000001,"lng":12.24427195},"southwest":{"lat":44.13778715,"lng":12.24416655}}},"icon":"https://maps.gstatic.com/mapfiles/place_api/icons/shopping-71.png","id":"da3170b22af4d444ab200a4131d40ef6af7128bf","name":"Farmacia Giorgi","opening_hours":{"open_now":false,"weekday_text":[]},"photos":[{"height":1152,"html_attributions":["<a href=\"https://maps.google.com/maps/contrib/107812118603535323725/photos\">Volfango Monaci</a>"],"photo_reference":"CoQBdwAAAHScEWjLbVPxQU-CMIb5NzaNHtnQBolreOlc_BsDobW0Wm1yma-AVUoXNRMhVFvpz6i_tgiZMZRDp5jJ8Pbe8SHwUrypledD3bYJxpD4k4cDoBefRDETm_bRrGEx2DtnGAyM8c-_I7fOectGkM7Tx_JV-CPIX0h_Bt1xrTcF8TGeEhA4IrnVeSs5iGH6n64qMxUoGhTal-AJmbLvBFST8vt6HYbamh6ITQ","width":2048}],"place_id":"ChIJF7rjiMikLBMRZbDwVld0PQE","reference":"CmRRAAAA6-Vuw8mwe5M-kIpLfec0KCBG5VvvYP3DCFsQZ8wxebhm_86r6FJgyQ8lqxVbM7RsLGUFdbzBBdVegpXpXCw82rKrt5oYf944sm6B1TgD442SLk3W6WfAnDhTyzVv3FTXEhBnSstjt1zRlph3Fnl3WLl3GhSqYf1Ej8YZQZEo85whV6xD5d4EQw","types":["pharmacy","health","store","point_of_interest","establishment"]}],"status":"OK"},"place":{"name":"Giorgi Giuseppino","address_1":"Via Garampa 6666","address_2":"47023 Cesena (FC)"}},{"google":{"html_attributions":[],"results":[{"formatted_address":"Via Dismano, 4355, 47522 Cesena FC, Italy","geometry":{"location":{"lat":44.1839841,"lng":12.2174959},"viewport":{"northeast":{"lat":44.18400494999999,"lng":12.21792295},"southwest":{"lat":44.18397715,"lng":12.21735355}}},"icon":"https://maps.gstatic.com/mapfiles/place_api/icons/generic_business-71.png","id":"16da5e878dd268a48f9c95cd4f87a9886b9359ea","name":"Gobbi Frutta S.R.L.","photos":[{"height":1000,"html_attributions":["<a href=\"https://maps.google.com/maps/contrib/101766625791288827224/photos\">Gobbi Frutta S.R.L.</a>"],"photo_reference":"CoQBdwAAAPlCkH3PzldkFRHloc35_ao0IjjaU0yuoUiOaSCRlHQlz7hNy8U8M-cGpGgKiwP8eeMKgMLBljxbr9QpMc_RPeVYZlphqgkaqbkU9I98bF5oGRpgUVoFUgpWZlgWcOpkokhCaFYj-HzuqrGf6ImSoWUWD3Jx8JsNI7KCPQAulnyREhAF6ANaCDcn5-lRhviICgfHGhSbdmvVd4nIWDAob4PTydFPxU51KA","width":1000}],"place_id":"ChIJ1WbhYHClLBMR8ZcGL5Odi7I","reference":"CmRSAAAAbFqoAqpxDRQ3R83lS8u2NUToVjkgNCmE-H8LOC2RA9_pMy7L2XfSRILgpU_m1UwJ4kC-SeO-HNRzNxC3YZiXYJGCWFT_Mue3albFKW7m0-GAitDT94tLV3-2xqnLpGQ2EhCyxyJ9fzdVoF2-QpZ-4s4OGhRAHqV0oqucL9RV-4S4O1pmhIXGUA","types":["food","point_of_interest","establishment"]}],"status":"OK"},"place":{"name":"Gobbi Frutta (s.r.l.) ","address_1":"Via Capannaguzzo 6720","address_2":"47023 Cesena (FC)"}},{"google":{"html_attributions":[],"results":[{"formatted_address":"Via Dismano, 3720, Cesena FC, Italy","geometry":{"location":{"lat":44.1783591,"lng":12.2181193},"viewport":{"northeast":{"lat":44.17836215000001,"lng":12.2182366},"southwest":{"lat":44.17835755,"lng":12.218061}}},"icon":"https://maps.gstatic.com/mapfiles/place_api/icons/generic_business-71.png","id":"c858bda135de94c429023738b538aadbc4dceb05","name":"La Casanova Di Casanova Rino & C. S.N.C.","place_id":"ChIJQ_TENnKlLBMRpDO_4gdP3P0","reference":"CmRSAAAAxupDX8To3fLUwMHExkzpm-h_5RbBizQiK_iAOA6mOGzXK5fBPJb44AnwtqGduzcHGn4ge8cKqKr8POrm6WvhXjpIK6WH07sFs9SAO8QJWT2a-v6GP1O8MWd5aCNIe7SPEhBBcyMqkn8lN4kn67ylaPuHGhTDpdSt-DJmzawtdb1u4iC1ReU3dw","types":["point_of_interest","establishment"]}],"status":"OK"},"place":{"name":"La Casanova Di Casanova Rino & C. S.n.c. ","address_1":"Via Dismano 3720","address_2":"47023 Cesena (FC)"}},{"google":{"html_attributions":[],"results":[],"status":"ZERO_RESULTS"},"place":{"name":"La Porta Salvatore","address_1":"Via Pavirana 2240","address_2":"47023 Cesena (FC)"}},{"google":{"html_attributions":[],"results":[],"status":"ZERO_RESULTS"},"place":{"name":"Lombardi Raniero","address_1":"Via Mariana 164","address_2":"47023 Cesena (FC)"}},{"google":{"html_attributions":[],"results":[{"formatted_address":"Via Melona, 1965, Cesena FC, Italy","geometry":{"location":{"lat":44.18731870000001,"lng":12.2672344},"viewport":{"northeast":{"lat":44.18745324999999,"lng":12.26723925},"southwest":{"lat":44.18727385,"lng":12.26721985}}},"icon":"https://maps.gstatic.com/mapfiles/place_api/icons/generic_business-71.png","id":"a37051e689c00734c52e8a15b79214f0f5a2d956","name":"Lombardi Lino","place_id":"ChIJHyAXZai6LBMRe8ie0YoDybQ","reference":"CmRSAAAAOjftHaK-l_CjEBbpL6ax3Qix2AN-MZhgzw5bOY4Ysdjwdt3iS-64JaOIznZL1K9dRmlof4XE8nwzjwg_Q38Xf5PescgP_5GrwzJ_VVHFhMNIQ9-T5O6oNqbCKbE6iv64EhDingTqt3XopNXpxUGckX_MGhTTvL4Rb5oRqxq1BEXJuKk7L8cGRQ","types":["food","point_of_interest","establishment"]}],"status":"OK"},"place":{"name":"Lombardi Lino","address_1":"Via Melona 1965","address_2":"47023 Cesena (FC)"}},{"google":{"html_attributions":[],"results":[{"formatted_address":"47521 Cesena, Province of Forlì-Cesena, Italy","geometry":{"location":{"lat":44.1447241,"lng":12.2625141}},"icon":"https://maps.gstatic.com/mapfiles/place_api/icons/geocode-71.png","id":"6098593bbf2f98d586fb4d6634cf2b51f2eeece7","name":"","place_id":"Ehc0NzUyMSBDZXNlbmEgRkMsIEl0YWxpYQ","reference":"CpQBjAAAAOXQvTTtSQxpBaME-1Dlh6GgNZpkPMVJ1ruKiZSzdcaWyG8G6T_KDJTmu2-c6RV-NbKiZ4jPsDg3Dtsh35Hc8oPRhUklA9-6_0-fO83snlEmKmjdU-ICupN6DhAZiiz2tQ0yndZlN_PRiIWzKcPIIyk4ygxdUrqn5oRgBYnPtSJofOl2OSAuty_J2Bdm7CTc1xIQOJIY5C5i4W8Ev2NeoLFVvBoUsmhJaNlc0CZgCPDR8mRnoPYjC-8","types":["intersection"]}],"status":"OK"},"place":{"name":"Lucchi Giovannino & C. (s.n.c.) ","address_1":"Via Lepanto 208","address_2":"47023 Cesena (FC)"}},{"google":{"html_attributions":[],"results":[{"formatted_address":"Rotonda Lugaresi Edmeo, 47521 Cesena FC, Italy","geometry":{"location":{"lat":44.1439749,"lng":12.2633804}},"icon":"https://maps.gstatic.com/mapfiles/place_api/icons/geocode-71.png","id":"c5c07c442bec007f9a9b8019e557501a83acd79b","name":"Rotonda Lugaresi Edmeo","place_id":"ChIJOcKlsS-7LBMRpTYmkUy4elc","reference":"CmRbAAAAE_Ai4jTa4wH7krp3zcMuGLoRxRPxNyI2PI1KtA_tUBZZOluDjMtIbg5mdH5rxs7rTB0RwvYHp82CikOU-KKDjpEydYDDbk5C9GvzsgWyEoiimzOIpfFmZqoQv4V0DdyuEhAIoTqlRF_9ucqo4_z2zyaLGhSITQk4o48LZj_Xhol8D0eW1IUaNQ","types":["route"]}],"status":"OK"},"place":{"name":"Lugaresi Edmeo","address_1":"Via Ridolfi 530","address_2":"47023 Cesena (FC)"}},{"google":{"html_attributions":[],"results":[{"formatted_address":"1017 Via Masiera, Ronta, FC 47023, Italy","geometry":{"location":{"lat":44.19313999999999,"lng":12.2426}},"icon":"https://maps.gstatic.com/mapfiles/place_api/icons/generic_business-71.png","id":"789b74cb3af67f4410df61293034e681a2464ea8","name":"Mambelli Severi Anna","place_id":"ChIJGUUSkvevLBMRrhYB8Ie2xPA","reference":"CmRSAAAAv2HD-XTBnbfO46CtbIEHyb62N91_8wZiBu-5tjQdOGQJB1OHBovQzIC5URHtVXX3f7ilxFbBpAcZyfJr_KBGEz1YS7prOMlTFa2P3MLpCd9PJKJ_XOXWTSmsf0-sr-xCEhCyVb2F82ut9ox89IkQvTv3GhQez_kAzxv2lGKzrxPdpdTfdApPtA","types":["point_of_interest","establishment"]}],"status":"OK"},"place":{"name":"Mambelli Severi Anna","address_1":"Via Masiera 1017","address_2":"47023 Cesena (FC)"}},{"google":{"html_attributions":[],"results":[{"formatted_address":"Via Calabria, 47522 Cesena FC, Italy","geometry":{"location":{"lat":44.2180963,"lng":12.2841667},"viewport":{"northeast":{"lat":44.2181037,"lng":12.2842283},"southwest":{"lat":44.2180741,"lng":12.2839819}}},"icon":"https://maps.gstatic.com/mapfiles/place_api/icons/generic_business-71.png","id":"61b460d1cccec048c321ba7633408d92d8fa7de4","name":"Societa' Agricola Aleagri Srl Di Francesco Manuzzi","place_id":"ChIJYTsf0E6wLBMR8aD3US0JmZU","reference":"CmRSAAAAIBWDJXyah09bGAzLgM7WNCFFhCRTVniDqjyEzPAPIF2F_2kXijwuLehuVcuWQwX5-WPi3tJz-eCGCNarPF9B4fGEWoGsQpcp5BzpOwGLDkoyc3SHVH-0zuOQcE72tMyxEhAGxONQQyVjI9vp5tdlFDKpGhQ4puaUCf79zaGhi47dU3cSpvbi1A","types":["point_of_interest","establishment"]}],"status":"OK"},"place":{"name":"Manuzzi Francesco","address_1":"Via Mensa 509","address_2":"47023 Cesena (FC)"}},{"google":{"html_attributions":[],"results":[{"formatted_address":"Via Dismano, 3843, Cesena FC, Italy","geometry":{"location":{"lat":44.179533,"lng":12.2180775},"viewport":{"northeast":{"lat":44.17953570000001,"lng":12.21817585},"southwest":{"lat":44.17953089999999,"lng":12.21800045}}},"icon":"https://maps.gstatic.com/mapfiles/place_api/icons/generic_business-71.png","id":"b7a30b7837bf02372a3d04ca3ec3c0bb42b4e249","name":"Marconi Renato E Marconi Livio (S.N.C.)","place_id":"ChIJTT_rM3KlLBMRD8HA9jwR33A","reference":"CmRRAAAA7JkW9hkL2xFPDd_kpChZv9Pq_mlJg8DvQiPkOxXHh2GJGrDvc2Y0CyKAu_4xxlqQDmEyFyOQohuFLklKuFEsu5vmSfb5pq7nqALm03V53d0oU3e2IDyy5mgTS0Z7NPvkEhDUBIgt7wzxWTZFwF_xKd1FGhTjblHa3VGp_mSE1eMHpjVGjO8FCw","types":["food","point_of_interest","establishment"]}],"status":"OK"},"place":{"name":"Marconi Renato E Marconi Livio (s.n.c.) ","address_1":"Via Dismano 3843","address_2":"47023 Cesena (FC)"}},{"google":{"html_attributions":[],"results":[{"formatted_address":"Via Sala, Cesena FC, Italy","geometry":{"location":{"lat":44.1406263,"lng":12.2963702},"viewport":{"northeast":{"lat":44.14063274999999,"lng":12.296558},"southwest":{"lat":44.14062415000001,"lng":12.2963076}}},"icon":"https://maps.gstatic.com/mapfiles/place_api/icons/generic_business-71.png","id":"0c5e0f091254f62c3570d7b43f5bc9d519be5ac8","name":"Maroncelli Sergio","place_id":"ChIJZ203AbO7LBMRc5MabhHhvE4","reference":"CmRRAAAANmhf3_FZH15ypwVMiw7yCizkhGtR_oiqHN-RJZZTnBVqg2T9kabJ-n0nuP357G6DIFwBUEqBUOASaJmpZ_5VhXBpW_oc4a75gpcyxGW8gJG1oupdlgU8MgIuPEsbEVKcEhDbPrTIrGtZGuRZ0rqhE6vOGhRjGE5HApx9m48hThCdkGuyBIMJ7g","types":["point_of_interest","establishment"]}],"status":"OK"},"place":{"name":"Maroncelli Sergio","address_1":"Vlo Sala 3200","address_2":"47023 Cesena (FC)"}},{"google":{"html_attributions":[],"results":[{"formatted_address":"Via Boscone, 2290, Cesena FC, Italy","geometry":{"location":{"lat":44.1644779,"lng":12.2542819},"viewport":{"northeast":{"lat":44.16449050000001,"lng":12.2544691},"southwest":{"lat":44.1644737,"lng":12.2542195}}},"icon":"https://maps.gstatic.com/mapfiles/place_api/icons/shopping-71.png","id":"cc6969674fca4a534e224c727098b3794516f74a","name":"Maroni Elio E Figli","place_id":"ChIJiaa0OTWlLBMR6mFoFfj-8m8","reference":"CmRRAAAAIe4bMt_0w0Xm-b6S_8638QoEwz8ws5h8iXIXgGoF2AAb0OlTdjhmg9AKpQIrQoyh0nJt7JulqNihV37P4w8E_3NO_T-Mmt43Lmofupo9tYJgWpUrZ-XAaOsc2q1q_JQlEhD2HfNXJ2LSdX6nJ8MN2-cKGhTgH2jz87iKRA0Lt7VQKuvjLlP4zA","types":["florist","store","point_of_interest","establishment"]}],"status":"OK"},"place":{"name":"Maroni Elio & Figli ","address_1":"Via Emilia Levante 1355","address_2":"47023 Cesena (FC)"}},{"google":{"html_attributions":[],"results":[],"status":"ZERO_RESULTS"},"place":{"name":"Martinetti Sauro","address_1":"Via Capannaguzzo 1538","address_2":"47023 Cesena (FC)"}},{"google":{"html_attributions":[],"results":[],"status":"ZERO_RESULTS"},"place":{"name":"Mengozzi Di Mengozzi Sanzio & C. (s.n.c.) ","address_1":"Via Mentana 27","address_2":"47023 Cesena (FC)"}},{"google":{"html_attributions":[],"results":[{"formatted_address":"Via del Confine, 5840, Cervia RA, Italy","geometry":{"location":{"lat":44.19883050000001,"lng":12.3358922},"viewport":{"northeast":{"lat":44.19895709999999,"lng":12.33605825},"southwest":{"lat":44.19878830000001,"lng":12.33583685}}},"icon":"https://maps.gstatic.com/mapfiles/place_api/icons/generic_business-71.png","id":"462eb541de75916945569181123c6cf181366c18","name":"Minotti Ivo","place_id":"ChIJ274WhcewLBMRyTTgC9YyOZE","reference":"CmRSAAAAZmuv8FZ4HDOYHQUaeApQ6bRbY3tuT4XiuA5PgrZdHkEuFayGkqaQvH1P8YB2szmz5VVhJPRjEsVHvtprix4PYXKON3jid4TK2MGb-m1ayzYUEr50j8ttde0brmTLJHK0EhBDenXMMJ7P-XXi1_vxv7j6GhTfKxT-W-dLJdRkm2cNNUX_ZqMuBg","types":["food","point_of_interest","establishment"]}],"status":"OK"},"place":{"name":"Minotti Ivo","address_1":"Via Borello","address_2":"47023 Cesena (FC)"}},{"google":{"html_attributions":[],"results":[],"status":"ZERO_RESULTS"},"place":{"name":"Natali Giuseppe","address_1":"Via Polignana Ii 209","address_2":"47023 Cesena (FC)"}},{"google":{"html_attributions":[],"results":[{"formatted_address":"Via Emilia Levante, 3548, Cesena FC, Italy","geometry":{"location":{"lat":44.1141246,"lng":12.307427},"viewport":{"northeast":{"lat":44.11426994999999,"lng":12.3075488},"southwest":{"lat":44.11407615,"lng":12.3073864}}},"icon":"https://maps.gstatic.com/mapfiles/place_api/icons/generic_business-71.png","id":"649cef5f4d0c41dc93b3ccbac8a5a16b6636c514","name":"Nuovagri S.R.L.","place_id":"ChIJ1z3fm4a7LBMRp1Bp7h4q16M","reference":"CmRSAAAAKrKdRxUhJblGBLJz4iSBRnZWln4u1bJ6-b56CBffh_5a_H2emeRXeRZmn78ck-cuyQSX6M1KhKMW6CJDH9HKnSUwZCnHjWVIHotJ2zHplgF0JV8ZLDUI3syGv5HCDDTiEhApbYBpHxpltisswYwigOg4GhQZkWkYXf_i_W-UBLre_c845N3x2A","types":["food","point_of_interest","establishment"]}],"status":"OK"},"place":{"name":"Nuovagri S.r.l. ","address_1":"Via Emilia Levante 3548","address_2":"47023 Cesena (FC)"}},{"google":{"html_attributions":[],"results":[{"formatted_address":"Via Giuseppe Fanin, 41, Cesena FC, Italy","geometry":{"location":{"lat":44.1566298,"lng":12.2159501},"viewport":{"northeast":{"lat":44.15664430000001,"lng":12.21600945},"southwest":{"lat":44.15658629999999,"lng":12.21577205}}},"icon":"https://maps.gstatic.com/mapfiles/place_api/icons/generic_business-71.png","id":"8f9d0bb70c84bc44cd4ae331ced6c1a40be57119","name":"O.r.m.a. Di Boschetti Fabio E C. S.a.s.","place_id":"ChIJQ_wiCAKlLBMRKhyRXQgLjhk","reference":"CmRRAAAAUYICHnsk5ZdduesRcYoumnVxW00JusnItvttU1xm2q8AzOm8kXy--dTkP-gzP18Vd8_LMYge_RF6E25BgvDsaep267zCGC5HGWRsyIqVKuOC-zREgrrhwhS_oPZgYlOmEhADGr4CHZshCRlTUwGHaxzxGhQzLVfylUWZ4rXr7EnseljtqLiWXg","types":["food","point_of_interest","establishment"]}],"status":"OK"},"place":{"name":"Orma Di Boschetti Fabio ","address_1":"Via Fanin G. 41","address_2":"47023 Cesena (FC)"}},{"google":{"html_attributions":[],"results":[],"status":"ZERO_RESULTS"},"place":{"name":"P.b. Import - Export Di Passerini Bruno ","address_1":"Via Pisa 35","address_2":"47023 Cesena (FC)"}},{"google":{"html_attributions":[],"results":[{"formatted_address":"Via Fossalta, 2440, Cesena FC, Italy","geometry":{"location":{"lat":44.18933070000001,"lng":12.2094632},"viewport":{"northeast":{"lat":44.18934839999999,"lng":12.20964965},"southwest":{"lat":44.18932480000002,"lng":12.20940105}}},"icon":"https://maps.gstatic.com/mapfiles/place_api/icons/generic_business-71.png","id":"a8b4200cfdb8a68103223dbe701507af052349be","name":"Palazzi Mario","place_id":"ChIJGwLtmnilLBMRaZzgnBUDtB8","reference":"CmRRAAAAwmQXdzXlPHAHBBllss-QCt9vHFPiokv9FsvLaWzZF0zxJCSNJssvNH5LYrSfNdNITJOZDjxwFqTum4DSEOoXccZ0zZcHIyTrYZC6GYy-s6B3eeWqFfVGy6sLwodntL5XEhDJRG2c-B3AulDYaUokL26LGhQgjTXzkox2Q7AzVWZbLnnRN9jFUA","types":["food","point_of_interest","establishment"]}],"status":"OK"},"place":{"name":"Palazzi Mario","address_1":"Via Fossalta 2440","address_2":"47023 Cesena (FC)"}},{"google":{"html_attributions":[],"results":[],"status":"ZERO_RESULTS"},"place":{"name":"Panzavolta Luigino","address_1":"Vlo Fiume 205","address_2":"47023 Cesena (FC)"}},{"google":{"html_attributions":[],"results":[{"formatted_address":"Via S. Giorgio, 4943, Cesena FC, Italy","geometry":{"location":{"lat":44.1879275,"lng":12.2786981},"viewport":{"northeast":{"lat":44.1879303,"lng":12.2787607},"southwest":{"lat":44.1879191,"lng":12.2785103}}},"icon":"https://maps.gstatic.com/mapfiles/place_api/icons/generic_business-71.png","id":"7c28a802e28d869973d9a5ca933509544bea8911","name":"Pasini Oriano","place_id":"ChIJ1e1fTziwLBMRCKpcGlxQXjo","reference":"CmRRAAAA0z-B3lqM3WiuVs10SS05m2mi4R3t5AXmbcuUv7KM0CTrzcf7MCwn98VJn4SpCSOZtwIx5hNstFTZHzdo5lTU72Y-mzHhU_XvWVXRgFH6wHvuKJUUBXtmzepOEYofuIrfEhCU_FrQ3lCU1uVUXRw9tTlTGhT-PMAHFwTE5yyYQK6thxtdO5w1zA","types":["point_of_interest","establishment"]}],"status":"OK"},"place":{"name":"Pasini Oriano","address_1":"Via S. Giorgio 4943","address_2":"47023 Cesena (FC)"}},{"google":{"html_attributions":[],"results":[],"status":"ZERO_RESULTS"},"place":{"name":"Passerini Normanno","address_1":"Via Uberti 24","address_2":"47023 Cesena (FC)"}},{"google":{"html_attributions":[],"results":[{"formatted_address":"Via Fornasaccia, 358, Cesena FC, Italy","geometry":{"location":{"lat":44.1850946,"lng":12.2383923},"viewport":{"northeast":{"lat":44.18522899999999,"lng":12.2384073},"southwest":{"lat":44.1850498,"lng":12.2383873}}},"icon":"https://maps.gstatic.com/mapfiles/place_api/icons/generic_business-71.png","id":"10e9ba0b0ccfc19cfec5e9b8247ab462e078cf9d","name":"Pavirani Lorena","place_id":"ChIJnbQRnVulLBMR84RcUzdjNpM","reference":"CmRSAAAA8hELBrN7-bu5qBwX1iPzWZoA-pYhJZelpSO2NaU5DYmlA-tsDP-zdShbmPk73yjVGkba3-rdb2u73PyabivCppPDw1GV6kng0axNF8hplPKs8ZKxo8T1fxtu5hjxD_NiEhDrLnrMo1A0n5TXbL5ShKegGhSL6WydnVJiWLtf-34ro5xJml7FmQ","types":["food","point_of_interest","establishment"]}],"status":"OK"},"place":{"name":"Pavirani Lorena","address_1":"Via Boscone 1765","address_2":"47023 Cesena (FC)"}},{"google":{"html_attributions":[],"results":[],"status":"ZERO_RESULTS"},"place":{"name":"Pavirani Lorena Lorena","address_1":"Via Fornasaccia 358","address_2":"47023 Cesena (FC)"}},{"google":{"html_attributions":[],"results":[{"formatted_address":"Via S. Carlo, 1100, Cesena FC, Italy","geometry":{"location":{"lat":44.0901541,"lng":12.1922865},"viewport":{"northeast":{"lat":44.09020515,"lng":12.19230435},"southwest":{"lat":44.09007975000001,"lng":12.19228055}}},"icon":"https://maps.gstatic.com/mapfiles/place_api/icons/generic_business-71.png","id":"1ae6479e497d8a74b5f4488f4d591128a253bafe","name":"Piraccini Tiziano","place_id":"ChIJmXuJTrGjLBMRa5ZNq7CiMtc","reference":"CmRSAAAATkS5nEml-_vP6wyWaR3e5umsZ8ltDkPvVKweFDDMAr09VLL5KONtKG-OctpPG8tXClSxzne9ChrMTx2GyAjGT8bGFvvFVyuTglE6bF37zmqMTyiRkzPk0mmCPLvaejosEhCRhXEvdZV2lSUR2gjSoSWjGhTLnexpR4FLrrCt4M5a5XAY_blg6g","types":["point_of_interest","establishment"]}],"status":"OK"},"place":{"name":"Piraccini Tiziano","address_1":"Via S. Carlo 1100 A","address_2":"47023 Cesena (FC)"}},{"google":{"html_attributions":[],"results":[],"status":"ZERO_RESULTS"},"place":{"name":"Pistocchi Colombo","address_1":"Via Masiera 1011","address_2":"47023 Cesena (FC)"}},{"google":{"html_attributions":[],"results":[{"formatted_address":"Via Calabria, 7229, Provincia di Forlì-Cesena, Italy","geometry":{"location":{"lat":44.1755116,"lng":12.288722},"viewport":{"northeast":{"lat":44.1755398,"lng":12.2889059},"southwest":{"lat":44.1755022,"lng":12.2886607}}},"icon":"https://maps.gstatic.com/mapfiles/place_api/icons/generic_business-71.png","id":"c6ee5dae2c5e0100972470105533aec7944d8755","name":"Pistocchi Marcello","place_id":"ChIJIcd4B2mwLBMR5b8haq4zgxw","reference":"CmRRAAAAk6PEsnwIgetCaCWTp_M_XKOy-3KmY06oVxcs0z-XtqgIdKwgBumHSxGTDwakgd3bRJdwUNn8VFLrr570rpBdgBZzrGq8O7TJEfZVezivY60f3Fp7d5ioqor9PVVbtUMgEhDI3V0E2uPVi8-CfCOQ3deHGhSTmOfKiaJUmYD_fwpouB7vV6KnPQ","types":["point_of_interest","establishment"]}],"status":"OK"},"place":{"name":"Pistocchi Marcello","address_1":"Via Calabria 7229","address_2":"47023 Cesena (FC)"}},{"google":{"html_attributions":[],"results":[{"formatted_address":"Via S. Cristoforo, 98, 47522 Cesena FC, Italy","geometry":{"location":{"lat":44.14628800000001,"lng":12.2166895},"viewport":{"northeast":{"lat":44.14631099999999,"lng":12.2167506},"southwest":{"lat":44.14626620000001,"lng":12.2165062}}},"icon":"https://maps.gstatic.com/mapfiles/place_api/icons/shopping-71.png","id":"2f5aa95fbf208b1b8df3b589accb33a35d6f11e4","name":"Ferramenta Placuzzi","opening_hours":{"open_now":false,"weekday_text":[]},"place_id":"ChIJvcDem-ikLBMRBSuraf09uKA","reference":"CmRSAAAA1HRRObz7GRvlsh-1aVnTp1sOH3vfoqa9egonnSHwi0mnJpHNlDXXy3uuEulFyG5BLqWk8ZV3FaISX75xp34ysRBlqYxlduUjUszSNl6VNWY0eTMgBpSV0vBFkcNPMOHHEhD7JxAbmezAnMEReTBg_NqyGhSrFa6k6HcWW9yPzCt0OEC7V2atWA","types":["hardware_store","store","point_of_interest","establishment"]}],"status":"OK"},"place":{"name":"Placuzzi Giorgio","address_1":"Via Maccanone 930","address_2":"47023 Cesena (FC)"}},{"google":{"html_attributions":[],"results":[],"status":"ZERO_RESULTS"},"place":{"name":"Pollini Maria Rosa ","address_1":"Cso Cavour 55 55 A","address_2":"47023 Cesena (FC)"}},{"google":{"html_attributions":[],"results":[],"status":"ZERO_RESULTS"},"place":{"name":"Pondi Biserna Alba","address_1":"Via Formignano 97","address_2":"47023 Cesena (FC)"}},{"google":{"html_attributions":[],"results":[{"formatted_address":"Via Madonna dello Schioppo, 117, Cesena FC, Italy","geometry":{"location":{"lat":44.1512113,"lng":12.2465922},"viewport":{"northeast":{"lat":44.15134554999999,"lng":12.24659255},"southwest":{"lat":44.15116655,"lng":12.24659115}}},"icon":"https://maps.gstatic.com/mapfiles/place_api/icons/generic_business-71.png","id":"aeecea0e37ba4aafe94db223d2a5c5ff3c20ad44","name":"Pransani Graziano","place_id":"ChIJwyTxcdekLBMRzLwagCCCUO4","reference":"CmRSAAAAAtPKsbWb8cCpR6zjfwIJHRTebDYjSObP3SieYamW0Dx9XS42u2mRgAZuE26w-kfys4Dabpt4EaueIPXNZ4IMfQZCcbvJryhUBmOKIa4eB8bV5a7fdMPtQDtuLgMW9UjkEhDLgzO5qVq23ia_bMQqCFs_GhQeJhiA3HSAME1omtlLOeD_uHvf4A","types":["food","point_of_interest","establishment"]}],"status":"OK"},"place":{"name":"Pransani Graziano","address_1":"Via Madonna Dello Schioppo 117","address_2":"47023 Cesena (FC)"}},{"google":{"html_attributions":[],"results":[],"status":"ZERO_RESULTS"},"place":{"name":"Prati Bruno","address_1":"Via Cervese 700","address_2":"47023 Cesena (FC)"}},{"google":{"html_attributions":[],"results":[],"status":"ZERO_RESULTS"},"place":{"name":"Preite Emilio","address_1":"Via Polesine 293","address_2":"47023 Cesena (FC)"}},{"google":{"html_attributions":[],"results":[{"formatted_address":"Via Cerchia di Sant'Egidio, 2970, Cesena FC, Italy","geometry":{"location":{"lat":44.1554869,"lng":12.2680795},"viewport":{"northeast":{"lat":44.1555502,"lng":12.26838285},"southwest":{"lat":44.15542499999999,"lng":12.26716945}}},"icon":"https://maps.gstatic.com/mapfiles/place_api/icons/generic_business-71.png","id":"82fcc9d452e6892b6f4f8747fac5e01015a57949","name":"Raggi Vivai Sapore E Salute S.A.S. Di Raggi G. E O.","opening_hours":{"open_now":false,"weekday_text":[]},"photos":[{"height":3040,"html_attributions":["<a href=\"https://maps.google.com/maps/contrib/118415124040097210546/photos\">andrea casadei</a>"],"photo_reference":"CoQBdwAAAHkjMtX50KQu8pFUDGFS6nYxA1GIonqSiewYzqpxwarx4V8STZCL9NoH3IPL1CbeIIREXJ2gVyhSPIVqUfApEP0WMkh8T8vjhAFBm6toSK37_tO800K30FkVRZAHwncNyACzerBMhhUHoCKn33U97mfOkSa-IzOev-8P2O0agv_TEhDabidCy9b8VDXmC0qm7EIbGhRkB0-MECpYCEyTlDB6hbhOw4U6_A","width":2008}],"place_id":"ChIJUTKq7dm6LBMRjukWnhOfr-0","reference":"CmRSAAAA2KNIt-xymQbGQmFnNTgxYJ9lb_ucyvrdyAAkjuKWNCar9wT6vtXQv3MSWBjqEYItBWvWCOght5mV2YTO_48yxQktp0MYr-5D-9oEYH85-HkN1AXjAa-fs-PPXiOYzFCJEhBApuPTsRmHirq3AiXw1JlfGhRkmW7LSU2533igP50PLpVrT_BqVA","types":["food","point_of_interest","establishment"]},{"formatted_address":"Via Vigo Ruffio, 2787, Cesena FC, Italy","geometry":{"location":{"lat":44.1416899,"lng":12.30814},"viewport":{"northeast":{"lat":44.1417304,"lng":12.308194},"southwest":{"lat":44.14166760000001,"lng":12.308042}}},"icon":"https://maps.gstatic.com/mapfiles/place_api/icons/generic_business-71.png","id":"c86ff1453c65ec654f10b2a45f9a33f0736beb18","name":"Raggi Vivai Sapore E Salute S.S.Di Raggi Giordano E C.","permanently_closed":true,"place_id":"ChIJl-DZkK67LBMREvPuvkQV47o","reference":"CmRSAAAAHedsJp7Y1kxxi0b6DWI9H_oKjD1CJBJ5hnXNVRxxiR4DRAwVjIwLaKtvFU2R8TfhUNq_bQSc6icSmaQPIP14m_0kFHvoK52_QmXmkVEypM2yBUxdL_mbjnGVvSsXJlRrEhB9K-mXxw0Ppx1IoNCsa4jiGhRjRkh_ESi59PPwqMbtCF0Y-JD_2Q","types":["food","point_of_interest","establishment"]}],"status":"OK"},"place":{"name":"Raggi Vivai Di Raggi Giordano ","address_1":"Via Cerchia Di S. Egidio 3000","address_2":"47023 Cesena (FC)"}},{"google":{"html_attributions":[],"results":[{"formatted_address":"Via Domenico Ricci, 47039 Savignano Sul Rubicone FC, Italy","geometry":{"location":{"lat":44.0861136,"lng":12.4006411}},"icon":"https://maps.gstatic.com/mapfiles/place_api/icons/geocode-71.png","id":"f1bd24dd952994dba1b9532ef37d134adefeb048","name":"Via Domenico Ricci","place_id":"ChIJc72GZCS_LBMRYk6t5Gv9--g","reference":"CmRbAAAAnFZP_QGePU-yD7d1XO37MVlHbR-2hQyKx8NTuTHkjq-EYTyd9T7LvkDhHIpyp8q4_JnM4gDrPgmWRGBLkep2mrYEOZ3uXAXHxcUvWvMHiQWVNrrPg-ge_srzxYoi-cZaEhCcmGl3Ypv7Ry3RRgweHqKAGhT7VGVMChC1qDzi4pp3-KJZtuggPw","types":["route"]}],"status":"OK"},"place":{"name":"Ricci Giovanni","address_1":"Via Cesenatico 5357","address_2":"47023 Cesena (FC)"}},{"google":{"html_attributions":[],"results":[],"status":"ZERO_RESULTS"},"place":{"name":"Ricci Eligio","address_1":"Via Capannaguzzo 3560","address_2":"47023 Cesena (FC)"}},{"google":{"html_attributions":[],"results":[],"status":"ZERO_RESULTS"},"place":{"name":"Riccobene Antonio","address_1":"Via Formignano 1114","address_2":"47023 Cesena (FC)"}},{"google":{"html_attributions":[],"results":[],"status":"ZERO_RESULTS"},"place":{"name":"Riceputi Germano","address_1":"Via Montaletto 2353","address_2":"47023 Cesena (FC)"}},{"google":{"html_attributions":[],"results":[],"status":"ZERO_RESULTS"},"place":{"name":"Ridolfi Pietro","address_1":"Via Palo Di Ferro 423","address_2":"47023 Cesena (FC)"}},{"google":{"html_attributions":[],"results":[{"formatted_address":"Via del Borgo, 47522 Cesena FC, Italy","geometry":{"location":{"lat":44.11752089999999,"lng":12.1871417},"viewport":{"northeast":{"lat":44.11770420000001,"lng":12.1873526},"southwest":{"lat":44.11745979999998,"lng":12.1870714}}},"icon":"https://maps.gstatic.com/mapfiles/place_api/icons/generic_business-71.png","id":"4593fa71bd9814cf185edf86721d892b0ee15e2a","name":"Rigoni Luigi","place_id":"ChIJsxy3pIyjLBMRZ75fMGeRjbQ","reference":"CmRSAAAA-1S5JOFUNJIg76fYuEMyeYmcu1cSqAslK1mBW5sx5y4maAySb5muzTd-bM_5FFiEAclwqSb4M-3TDGQBCoiLzPYZjMmffCHp91Y8xO2rysddxZpOj3Bs6taE_UkxM1RdEhCkKzM1lcIsoaHA6d3fyJgBGhQ2k6E3Yu2D2lYWyppUK-4ittvyig","types":["point_of_interest","establishment"]}],"status":"OK"},"place":{"name":"Rigoni Luigi","address_1":"Via Del Borgo 640","address_2":"47023 Cesena (FC)"}},{"google":{"html_attributions":[],"results":[{"formatted_address":"Via Settecrociari, 51, Provincia di Forlì-Cesena, Italy","geometry":{"location":{"lat":44.1321257,"lng":12.1867224},"viewport":{"northeast":{"lat":44.13216175000001,"lng":12.18673665},"southwest":{"lat":44.13201754999999,"lng":12.18667965}}},"icon":"https://maps.gstatic.com/mapfiles/place_api/icons/generic_business-71.png","id":"51684bd1f9c8453d620d8a322a71f2f1442e9d32","name":"Ripro. Coop. S.C. Arl","place_id":"ChIJ7bx-e0ukLBMRiJp2Ccmm8bE","reference":"CmRSAAAAeGzSEbY_SjVa8XHh0-7U0BxVA2Mnm8MFUBppNq48hEGK-W_Itas3L4u6WxxSS11VShiPCOqHU1NleIS271yIkiOc6TiIKIcReAtEb0c6E6sCjrPRcPHbvBnth0cPX6lKEhD7uHusGim7jSY0aewUwYuGGhQPlruNJswHX859s6tBFdKZHY9Jog","types":["food","point_of_interest","establishment"]}],"status":"OK"},"place":{"name":"Ripro. Coop. S.c. Arl ","address_1":"Via Settecrociari 51","address_2":"47023 Cesena (FC)"}},{"google":{"html_attributions":[],"results":[{"formatted_address":"Via Carlo Cattaneo, 189, 47023 Cesena FC, Italy","geometry":{"location":{"lat":44.1424829,"lng":12.225006}},"icon":"https://maps.gstatic.com/mapfiles/place_api/icons/generic_business-71.png","id":"30a42b87ec49ec687e11067e5cf5bd04f54bd6a4","name":"Porte & Finestre di Rosati Sandro","opening_hours":{"open_now":false,"weekday_text":[]},"photos":[{"height":875,"html_attributions":["<a href=\"https://maps.google.com/maps/contrib/116616942644096776339/photos\">Porte &amp; Finestre di Rosati Sandro</a>"],"photo_reference":"CoQBdwAAAGRKhuZbyhwArtJwmbUSqpcTiE67_LwJdfXng2NLQwYBq7XQC8sPYDnh_e9lEKBQYOW-obyTeolrGyJJwZFhSzeaV4zfkD91DScaEndPgxX04uSx4yTJGdPHLqS0LFghahvCPu8_liwIWjkxzX78pg10CDBs_yHcMQy-FsloeKT6EhCzZiZYF11gbwFFD-6fS391GhRSMa0gtHdF1YnKqJE-kxlqljo4Kw","width":1500}],"place_id":"ChIJl1WZve6kLBMRxLIdJYbJXqg","reference":"CmRSAAAAkNlze0sHEvICqNP2w03M2aiRgKWgNnzUyrrrfBWOvE3ZaDg4nV-uUXpkT9VcNabFfweuZzV4IcKL2MATxqfBjSHR6dlo9pLxrx0-vJRl-r2AT5zlMljxLd765osVL_2XEhD645vCZgoLkILc54XuxMCLGhTMMA1kINE0VhW1C4-j-3ADcpg8OQ","types":["point_of_interest","establishment"]}],"status":"OK"},"place":{"name":"Rosati Carlo","address_1":"Via Targhini P. 3414","address_2":"47023 Cesena (FC)"}},{"google":{"html_attributions":[],"results":[{"formatted_address":"Via Masiera I, 470, Cesena FC, Italy","geometry":{"location":{"lat":44.1595382,"lng":12.2641026},"viewport":{"northeast":{"lat":44.15954380000001,"lng":12.2641688},"southwest":{"lat":44.1595214,"lng":12.2639136}}},"icon":"https://maps.gstatic.com/mapfiles/place_api/icons/generic_business-71.png","id":"a760c110511fc7cd20659c657b606becb0f68c16","name":"Rossi Secondo","place_id":"ChIJ6WexMNC6LBMRgoYcCyxrCVg","reference":"CmRRAAAAYTI9JhETlyETYQBfJtG2ZgNc2irl32tvEdJqvKaxMcdhy1Zav4Vxv3CJuyYriSH9NPD8T-pt2Lln5nra3L83fc2AFxFpdBmqQyy9eNbXu4bpSjiUAKaB8RzmkrtEgnLsEhDWMzE9d91gM7unm8ERVQrQGhTzulxPl5yPUfIYi41HV8RQVvZKSw","types":["point_of_interest","establishment"]}],"status":"OK"},"place":{"name":"Rossi Secondo","address_1":"Via Masiera I 470","address_2":"47023 Cesena (FC)"}},{"google":{"html_attributions":[],"results":[{"formatted_address":"Via Cesenatico, 6018, 47521 Cesena FC, Italy","geometry":{"location":{"lat":44.1563812,"lng":12.3344569},"viewport":{"northeast":{"lat":44.15651290000001,"lng":12.3344707},"southwest":{"lat":44.1563373,"lng":12.3344155}}},"icon":"https://maps.gstatic.com/mapfiles/place_api/icons/generic_business-71.png","id":"8100a0280b0a3158f4269f15729b85ebaab64ab0","name":"Santerini Aldo E Annunzio S.S. Az. Agr.","place_id":"ChIJ7TLJLzu6LBMRs14-UveZu_4","reference":"CmRSAAAAzC5OUAGPnHCYdrDoxZM5pd-DkgaZ1FpAQyg8Rskj8cnDxhXI3RiPq2n66e3EKA8xjEcQP4mNO_5dWf00pr0PEklKZf4qSL9RNZwqr3QrDgMC6DBwEi1sMu17uYR0iE8vEhAMtsj3j76H3m9QotRGHInJGhS4xdgv71g5QEztkbG0EQ_yO0rOOg","types":["food","point_of_interest","establishment"]}],"status":"OK"},"place":{"name":"Santerini Aldo & Figlio Di Santerini Annunzio Snc ","address_1":"Via Cesenatico 6018","address_2":"47023 Cesena (FC)"}},{"google":{"html_attributions":[],"results":[{"formatted_address":"Via Amalfi, Cesena FC, Italy","geometry":{"location":{"lat":44.15209249999999,"lng":12.2396812},"viewport":{"northeast":{"lat":44.15222315,"lng":12.239683},"southwest":{"lat":44.15204894999999,"lng":12.2396806}}},"icon":"https://maps.gstatic.com/mapfiles/place_api/icons/generic_business-71.png","id":"e460b8ee47ef983749b100caca9c79f189787d7b","name":"Senesi Fratelli (S.R.L.)","place_id":"ChIJKaCSHdmkLBMRL5jQIOtciKE","reference":"CmRSAAAAn-26zE1GG9AKoG-AtoWzHKaWaYsD4RlLdIP0F5GUX_CNwf5w5wkuBlV8lry7epWTZ4JXrTcKvzgU93yFMYGG6ffjHwxs15YYbwwkRu7eQByEK7WT5zGkGum8_7VhDn9xEhDO8ysPrsluSkJjMyOgBLJxGhRobYI7RGxLAjhPSK2CYkBUkJph_g","types":["food","point_of_interest","establishment"]}],"status":"OK"},"place":{"name":"Senesi Fratelli (s.r.l.) ","address_1":"Via Amalfi 2","address_2":"47023 Cesena (FC)"}},{"google":{"html_attributions":[],"results":[],"status":"ZERO_RESULTS"},"place":{"name":"Solfrini Guerrino","address_1":"Via Redichiaro 300","address_2":"47023 Cesena (FC)"}},{"google":{"html_attributions":[],"results":[],"status":"ZERO_RESULTS"},"place":{"name":"Taioli Secondo","address_1":"Via Savio 2134","address_2":"47023 Cesena (FC)"}},{"google":{"html_attributions":[],"results":[{"formatted_address":"Via Masiera II, 400, 47521 Cesena FC, Italy","geometry":{"location":{"lat":44.19899700000001,"lng":12.248317},"viewport":{"northeast":{"lat":44.19907329999999,"lng":12.24848395},"southwest":{"lat":44.1989477,"lng":12.24826135}}},"icon":"https://maps.gstatic.com/mapfiles/place_api/icons/shopping-71.png","id":"5d10efe8f881a4ef961d9595ab1cad8ea43433d1","name":"Garden Tisselli","opening_hours":{"open_now":false,"weekday_text":[]},"photos":[{"height":2988,"html_attributions":["<a href=\"https://maps.google.com/maps/contrib/114508479921900535728/photos\">Garden Tisselli</a>"],"photo_reference":"CoQBdwAAAGW6no7X5tWlKYeLln0CXxhWBONCPQiHtgtMoJTAXqr1ayqKnRY079JFinsabYzz-JMP--yc2rUgdbQdRzPeCHWCiOEdWd1fdHw-yO22cookSXLAHq2HsAWj1xRG2oZ--Dl5umZbZetK49kNDoR587ZVGa7sju-ti8ayC9930IxcEhCSynoXaRvdelCC7lJDMGjsGhTeV-ArMrbjr33A3txQcI85RvTT8w","width":5312}],"place_id":"ChIJy0NKrAKwLBMRrfE_48z84Yg","rating":4.4,"reference":"CmRSAAAACTnbPjQLPTIxk8ZNvPw-Hjzesotb-au3T44LBDb99pEhNsPbHRVR59htmmhmhAz7l-X0U1Cnvd-sQy1Z2e5wvDAEerulQUBHpOfBa3SbK-wMNitGdapzn_yJ6oPlUgeCEhDJfHE3TzwagrMgH-LT7y1zGhT1HY1PKh5OWAxD2qmENNoGjRuijA","types":["florist","store","point_of_interest","establishment"]},{"formatted_address":"Via Lecco, Cesena FC, Italy","geometry":{"location":{"lat":44.1449711,"lng":12.2994298},"viewport":{"northeast":{"lat":44.14497585000001,"lng":12.2994921},"southwest":{"lat":44.14495684999998,"lng":12.2992429}}},"icon":"https://maps.gstatic.com/mapfiles/place_api/icons/generic_business-71.png","id":"8305b41cda1240a9f6ce5d8239f572a7d37ad8b8","name":"Tisselli Srl","place_id":"ChIJJUoZfQC7LBMRfUVHYjD_DLU","reference":"CmRSAAAA0xKx3ZFciw1B3njZRkNpjKzJqlUbD4c38DYUifG0pbtu3BGfc23FR7qbSEXlH-msxK136Spidi06MEWSJpe6CMqW2hHKZFvAdpzAi4cW5oO67CWyPvI8ZU0GKIOhzoxrEhB2L2bCxVQhFuqrR22M2S5jGhRZ29pkn8WgzYhkdetA_obNEzHBlA","types":["point_of_interest","establishment"]}],"status":"OK"},"place":{"name":"Tisselli Claudio","address_1":"Via Masiera 400","address_2":"47023 Cesena (FC)"}},{"google":{"html_attributions":[],"results":[{"formatted_address":"Via Lecco, Cesena FC, Italy","geometry":{"location":{"lat":44.1449711,"lng":12.2994298},"viewport":{"northeast":{"lat":44.14497585000001,"lng":12.2994921},"southwest":{"lat":44.14495684999998,"lng":12.2992429}}},"icon":"https://maps.gstatic.com/mapfiles/place_api/icons/generic_business-71.png","id":"8305b41cda1240a9f6ce5d8239f572a7d37ad8b8","name":"Tisselli Srl","place_id":"ChIJJUoZfQC7LBMRfUVHYjD_DLU","reference":"CmRSAAAA6u_a_YdqpddNsac4ldAWxZTTKzmaZidnSE8yTnJxsHe1C8kNP074mJJ10D7L6giOrQVGgwur365QI7RHKfJCEZ466UJa9u_11lUhTf7hOqgB1TXRNmn0-VXPvHmLDi63EhC_IHqAAeDnTrprK2gaCV-VGhTAhWXov5C-TBC8dJ7nhJT9sxipYg","types":["point_of_interest","establishment"]}],"status":"OK"},"place":{"name":"Tisselli Quinto","address_1":"Via Calcinaro 563","address_2":"47023 Cesena (FC)"}},{"google":{"html_attributions":[],"results":[{"formatted_address":"Via Luzzena, Cesena FC, Italy","geometry":{"location":{"lat":44.0566964,"lng":12.168441},"viewport":{"northeast":{"lat":44.0568167,"lng":12.1685259},"southwest":{"lat":44.0566563,"lng":12.1684127}}},"icon":"https://maps.gstatic.com/mapfiles/place_api/icons/generic_business-71.png","id":"ec5d45e8e7b36d1a93da70f649449c439ffecc59","name":"Turci Virgilio","place_id":"ChIJiwTqYQ6iLBMRmFC0gGZruuA","reference":"CmRSAAAAWoVM4L9h-m7CqpdnVN_b2c_PJpxm3RVa2BXWz6_WQabdWejmHS4J8f3tY53QHiNaJhBnQhe_KdTvSE220tgr32ij4cCWKfwVg75s3QO_CsdSgD89pR5JeUv9vWELV3FMEhBnFw0VQaxBeXfwO949c_1hGhSA2_fe4xWvXZxfgPuif9XXglKdhA","types":["food","point_of_interest","establishment"]}],"status":"OK"},"place":{"name":"Turci Virgilio","address_1":"Via Luzzena","address_2":"47023 Cesena (FC)"}},{"google":{"html_attributions":[],"results":[{"formatted_address":"Via S. Giorgio, 5471, Cesena FC, Italy","geometry":{"location":{"lat":44.1879302,"lng":12.2786979},"viewport":{"northeast":{"lat":44.187933,"lng":12.2787605},"southwest":{"lat":44.18792179999998,"lng":12.27851009999999}}},"icon":"https://maps.gstatic.com/mapfiles/place_api/icons/generic_business-71.png","id":"712e44eddeb3e003fa4764a0f90859ba74a7c894","name":"Valdinoci Buda Marilena","place_id":"ChIJR2LVrjewLBMRsDdf5Ksi4b4","reference":"CmRSAAAADkHlYttd0NDoShVbh2dY_nFxhosky-QqAO7QwXsxwUX9s4bjr6_zjF__B7t7MvWM17Vvt_G4WQKQXY9kH3A7PHVviUkGL0BFqYkaUoiAFw3lwQY7DynZJ5RBBbxbt_GYEhDZXOopVWEjw073lAcEHjoFGhRCnLJ_021dxcv_pRnV0l8IOzP1rw","types":["point_of_interest","establishment"]}],"status":"OK"},"place":{"name":"Valdinoci Buda Marilena","address_1":"Via S. Giorgio 5471","address_2":"47023 Cesena (FC)"}},{"google":{"html_attributions":[],"results":[],"status":"ZERO_RESULTS"},"place":{"name":"Valeriani Eligio","address_1":"Via Ambugi 466","address_2":"47023 Cesena (FC)"}},{"google":{"html_attributions":[],"results":[],"status":"ZERO_RESULTS"},"place":{"name":"Valzania & Figli Di Valzania Gilberto & C.(s.a.s.) ","address_1":"Via Venezia 150","address_2":"47023 Cesena (FC)"}},{"google":{"html_attributions":[],"results":[{"formatted_address":"ቴሤሎ መንገድ, 4956, Cesena FC, Italy","geometry":{"location":{"lat":44.1008952,"lng":12.1420961},"viewport":{"northeast":{"lat":44.1009336,"lng":12.1421561},"southwest":{"lat":44.1008824,"lng":12.1419161}}},"icon":"https://maps.gstatic.com/mapfiles/place_api/icons/generic_business-71.png","id":"c6a43efc41c8546720e2f1ca930abc347ad8b71c","name":"Venturi Societa' Agricola Ss","place_id":"ChIJnSMPqnuhLBMR8lZH29fIZQY","reference":"CmRRAAAAynTrpp6R914W7x_oHZwfdaS8JaZ8DQB_eaZzU0Bo06KwQjtfEKn64sKbV_03eoYtkf3a5TwHl4dvsKFVze-iWcZZZNt31J8oEzJsrbY_ys1l1Zkh8AWNsc6eXFblLKveEhA0XyzNyay4vZ7Wb2n9vrUlGhTwg3wy2o4WKyJTpPcFC0kJT9OA-g","types":["food","point_of_interest","establishment"]}],"status":"OK"},"place":{"name":"Venturi Vincenzo","address_1":"Via Vecchia 530","address_2":"47023 Cesena (FC)"}},{"google":{"html_attributions":[],"results":[{"formatted_address":"ቴሤሎ መንገድ, 4956, Cesena FC, Italy","geometry":{"location":{"lat":44.1008952,"lng":12.1420961},"viewport":{"northeast":{"lat":44.1009336,"lng":12.1421561},"southwest":{"lat":44.1008824,"lng":12.1419161}}},"icon":"https://maps.gstatic.com/mapfiles/place_api/icons/generic_business-71.png","id":"c6a43efc41c8546720e2f1ca930abc347ad8b71c","name":"Venturi Societa' Agricola Ss","place_id":"ChIJnSMPqnuhLBMR8lZH29fIZQY","reference":"CmRRAAAAuzgqdzGXtkWLjsaD26hqAHt2UL8hPwFdIj-BDJ9NhCM0k_gWvQ8ocDY3-xNq4hWQmV7Qqiq6Oef0uGkC7MhQni2uKdnzTQe_nmTg6ZYvHQ9-IPlniiPYk0JyAvhJcWmaEhC8Bvg7WiViW9kqZAHF3sdQGhRGL56wyy8_WwtHGyp9rBrycgCrUQ","types":["food","point_of_interest","establishment"]}],"status":"OK"},"place":{"name":"Venturi Vincenzo","address_1":"Via Tessello 4956","address_2":"47023 Cesena (FC)"}},{"google":{"html_attributions":[],"results":[],"status":"ZERO_RESULTS"},"place":{"name":"Vitali Antonio","address_1":"Via Cerca 1170","address_2":"47023 Cesena (FC)"}},{"google":{"html_attributions":[],"results":[],"status":"ZERO_RESULTS"},"place":{"name":"Vivaio Quadrifoglio Di Carpani Massimo ","address_1":"Via Rio Marano 1491","address_2":"47023 Cesena (FC)"}},{"google":{"html_attributions":[],"results":[],"status":"ZERO_RESULTS"},"place":{"name":"Zammarchi Pietro","address_1":"Via Assano 1050","address_2":"47023 Cesena (FC)"}},{"google":{"html_attributions":[],"results":[],"status":"ZERO_RESULTS"},"place":{"name":"Zanuccoli Daniele","address_1":"Via Pontida 31","address_2":"47023 Cesena (FC)"}},{"google":{"html_attributions":[],"results":[],"status":"ZERO_RESULTS"},"place":{"name":"Zanuccoli Ernesto","address_1":"Via Pegli 203","address_2":"47023 Cesena (FC)"}},{"google":{"html_attributions":[],"results":[{"formatted_address":"Via Emilia Levante, 1910, Cesena FC, Italy","geometry":{"location":{"lat":44.1223979,"lng":12.2894284},"viewport":{"northeast":{"lat":44.12250800000001,"lng":12.28953685},"southwest":{"lat":44.12236119999999,"lng":12.28939225}}},"icon":"https://maps.gstatic.com/mapfiles/place_api/icons/generic_business-71.png","id":"0bbb20d33ff276d9cc1a82b788a1d4f4d13b59f2","name":"Zoffoli Banane S.R.L.","place_id":"ChIJwx6UI3C7LBMRknBpLzshWKY","reference":"CmRSAAAAhzKYsq7JD1W896VlsYHamuc-RfEj3KChv06AVqJJKTuY8zxBJupALEOAUkY0Dko_samRg5VuSPJb6fR5ofCWg-XD2yk5xoQXbAuCF4hgLFVMgCaB83O5o5NKcQMuIf3VEhAspCnCM2fLdpVMkfiakHFWGhTVH1PMCHcNgGD_XJ4_cT7-fGdpAQ","types":["point_of_interest","establishment"]},{"formatted_address":"Via Cervese, 3307, 47521 Cesena FC, Italy","geometry":{"location":{"lat":44.1672958,"lng":12.2792793},"viewport":{"northeast":{"lat":44.16729895000001,"lng":12.27946755},"southwest":{"lat":44.16729475,"lng":12.27921655}}},"icon":"https://maps.gstatic.com/mapfiles/place_api/icons/generic_business-71.png","id":"51ffb0fcd92b8727c29ab7619d20707cb9487274","name":"Carrozzeria Zoffoli","opening_hours":{"open_now":false,"weekday_text":[]},"photos":[{"height":807,"html_attributions":["<a href=\"https://maps.google.com/maps/contrib/102846598294288625952/photos\">Carrozzeria Zoffoli</a>"],"photo_reference":"CoQBdwAAAE6JNSG7j55lJnZS5f0uCKp1nBgVBhfVsN7vasIkU52q99Ye_qf0KX42kKdUKoEU5pSntZS4fXSjA0DmgD5mOzElXA3PvAeCQ-aoMilTc3Ydjw53MWOHZe_nDFA3H5pg-kWwbCCGMrBA0EnjQxM4VTF8troeZBoNwJgiOo7My5njEhA97QeXREvNQRuANtkSD2uUGhQ6BemXm-J1L7jw0Wpq5EcfaNRvNg","width":807}],"place_id":"ChIJFTTEiuq6LBMRBbNEFtADJSo","reference":"CmRRAAAA9q-RMP8Jhdxpd-zWB7vkopfchIyJO9AtgiIhGUNmdEyPfrJ9VHXQGpQaaqFyAUisyAcLduFK1_98gr2cWPVl7Aa-muHp5U_x0sGHqOcndM1kLq7sXd4fZDm5_jrzu6ZdEhBqEu4ESrBnqQ2YbJ3qucgBGhSth4IEnvAwqGB8owx8LR3QDoWPaQ","types":["car_repair","point_of_interest","establishment"]},{"formatted_address":"Via Archimede, 135, Cesena FC, Italy","geometry":{"location":{"lat":44.1180756,"lng":12.2943137},"viewport":{"northeast":{"lat":44.1180852,"lng":12.29450105},"southwest":{"lat":44.1180724,"lng":12.29425125}}},"icon":"https://maps.gstatic.com/mapfiles/place_api/icons/generic_business-71.png","id":"442e3a28a4afb4a09aef7dfb03db83c24de9ed41","name":"Autocarrozzeria Zoffoli","place_id":"ChIJYSspLHq7LBMR64Jbe2VRKj4","reference":"CmRRAAAA3jpDiO_U09V-iJNq_X0d_4XTXM8s9jlPoO08M2PPpZapG9bmdC_CaCIhlEzJbGkBORPdMwsU86Ucr6dGhD_zRfBPDUGN8-TkvJ7Bgr4B8rynAdxF5h_nvvfcX2pOikp3EhAKLemq9_lKBJ5-gMyV8xh1GhTlB7y4UAz5xwPyakVAqUmuvwaHqA","types":["car_repair","point_of_interest","establishment"]},{"formatted_address":"Piazza Sondrio, 44, Provincia di Forlì-Cesena, Italy","geometry":{"location":{"lat":44.1450039,"lng":12.2986751},"viewport":{"northeast":{"lat":44.14504660000001,"lng":12.2987342},"southwest":{"lat":44.1448758,"lng":12.2986554}}},"icon":"https://maps.gstatic.com/mapfiles/place_api/icons/shopping-71.png","id":"f4b04ac83ef14a3349ae58a9094a8b88bea96242","name":"Zoffoli Gabriele","opening_hours":{"open_now":false,"weekday_text":[]},"place_id":"ChIJ97lKhAC7LBMRXi0DeZNHL7U","reference":"CmRSAAAAnHmfzszuTTHtrqgf0LQaHwC0Toyqay7QnmUp6ZsWAH_ohBaQohh2bOrrpPaaJEtLw-Za_9OVm-APQpbRt4XHOFUetWsxcvrmqJYWLjCUxjVdc64JU88PaR_F1LDZbyHAEhAUHgsEGKUIaRa46DoWQjzqGhSeN1IaGCcOaKiQzsZdn-mT9m_QUw","types":["store","point_of_interest","establishment"]},{"formatted_address":"Corso c.b. cavour, 76, 47521 Cesena FC, Italy","geometry":{"location":{"lat":44.14121739999999,"lng":12.2483875},"viewport":{"northeast":{"lat":44.14130005000001,"lng":12.248437},"southwest":{"lat":44.14118984999998,"lng":12.248239}}},"icon":"https://maps.gstatic.com/mapfiles/place_api/icons/generic_business-71.png","id":"449e3efa099048d3ab17426c868c2074698ef50d","name":"Zoffoli Pasini +","opening_hours":{"open_now":false,"weekday_text":[]},"place_id":"ChIJBV__VsGkLBMRv6u66NMs19o","reference":"CmRSAAAARXQHQT5y7jncbD2DU69k3DQJbA3w7gJQ_xk7_TsIQiXucgBaUKUksPBnUYBwd0EG1cXv0JTTje7xW3BXRWPQUsJ0YEcngptPsdvui0Tx1aj55AH0d772EaVEG8QApyVnEhC1Z8w4SXmpb_D88iALuo_MGhSizhkLlar8zvX2V8ZyUmI-GnaJVw","types":["point_of_interest","establishment"]},{"formatted_address":"Via Viole, 140, Provincia di Forlì-Cesena, Italy","geometry":{"location":{"lat":44.1209152,"lng":12.3495695},"viewport":{"northeast":{"lat":44.12096004999999,"lng":12.3495824},"southwest":{"lat":44.12078064999999,"lng":12.3495652}}},"icon":"https://maps.gstatic.com/mapfiles/place_api/icons/generic_business-71.png","id":"58930ba89114f37ed04a195ba694968601472deb","name":"Zoffoli Metalli Srl","place_id":"ChIJWYg0Kly5LBMRSRdj60HcLvE","reference":"CmRSAAAAmQSmAz5gru6BFNrkehuTOjOWtVY-gw_v2Riq6Vp82_oktDlFL9qL52lPak745hVZAzurlrIswVLRyGP4gKPZQKuFTEb68M5WJ03LBrFYUpwxDMgyVP6-vXs03OxZZTncEhAsLDK2qY4KAlZqc3NiFvdkGhR7o0Vq_1p7BNrk-Ghh0zIhLLo_4Q","types":["point_of_interest","establishment"]},{"formatted_address":"Via delle Nazioni, Provincia di Forlì-Cesena, Italy","geometry":{"location":{"lat":44.170022,"lng":12.4291161},"viewport":{"northeast":{"lat":44.1700548,"lng":12.429159},"southwest":{"lat":44.16992359999999,"lng":12.4289874}}},"icon":"https://maps.gstatic.com/mapfiles/place_api/icons/generic_business-71.png","id":"5154b475b78a00342679db81c1da41c37adbfeb1","name":"Zoffoli Simone","place_id":"ChIJ4z0rBgK4LBMRPj9OxXleMco","reference":"CmRSAAAAl1BhMb9i1aVNPa0O1e_mk4wUZa71AtaV0yrHiqe9ZaSTSOKuAYS6EItBEUV-TkiMJfZZb8pLDZLIIVW0u48D-sFunKtsv0OdNIIhlk69ZFXA7atXV_li6Y3Uo9s7hmiWEhAuDY-uAqJdmR0Ifb8oZ0eVGhS2saIO8F9nucQQ4Sz2Hz05CcB3Pg","types":["point_of_interest","establishment"]},{"formatted_address":"Corso Giuseppe Mazzini, 48, Cesena FC, Italy","geometry":{"location":{"lat":44.1375518,"lng":12.2446979},"viewport":{"northeast":{"lat":44.13769055,"lng":12.24478475},"southwest":{"lat":44.13750555,"lng":12.24466895}}},"icon":"https://maps.gstatic.com/mapfiles/place_api/icons/shopping-71.png","id":"4653bf3d7ed74c074c18f1ee0b591b1f60ad0f4f","name":"Oreficeria Zoffoli Alfonso (S.A.S.)","place_id":"ChIJ3WKQisikLBMRXN9jhteqct4","reference":"CmRSAAAAhjiRtwIoC09Dz_2bX9O-XSeCtXRBh9Qre4WhPPB5it9LcalxOI98xGDYKPmQppda6DuSZ_Mrv6PnLnIZJOFhkbK8FgZjjOWVbyjAeNkwPPps2aMawOXge9FxJLcH1VBgEhAeGmfp8-Hmt3njY01hkz0yGhTuyiIAA7xaVMU_FbmXZN-IsAGKKQ","types":["jewelry_store","store","point_of_interest","establishment"]},{"formatted_address":"Via Archimede, 270, Cesena FC, Italy","geometry":{"location":{"lat":44.11689,"lng":12.29449},"viewport":{"northeast":{"lat":44.1168954,"lng":12.29459805},"southwest":{"lat":44.11688659999999,"lng":12.29442305}}},"icon":"https://maps.gstatic.com/mapfiles/place_api/icons/generic_business-71.png","id":"46aa6bfe475ba74fd17a867b1bb08659c39fdbd3","name":"A.Z. Snc Di Zoffoli Stefano E Silvia","place_id":"ChIJoe0053u7LBMRqN4pQo4odxk","reference":"CmRRAAAAvzb_kaxGS3dClFj7EXhuvpRlkFd1GOYsWciSwkwhz-JL6Iv1bUuRXgJpZy3_FSbfs3MmgaKqGhYVP0rxVTLwlwirB1ei1FtCaMLSG-oiMvOYOwEZ88U19AgNkRQR6EMZEhDNBf51ArpiaLbdENBi6l3NGhSR7Dc2BlAnDmWyXLte-zEfDa-kRA","types":["point_of_interest","establishment"]},{"formatted_address":"Via Pisignano, 921, 47521 Cesena FC, Italy","geometry":{"location":{"lat":44.1702328,"lng":12.2716607},"viewport":{"northeast":{"lat":44.17023655000001,"lng":12.2717232},"southwest":{"lat":44.17022154999999,"lng":12.2714732}}},"icon":"https://maps.gstatic.com/mapfiles/place_api/icons/generic_business-71.png","id":"4efe5bf7706595740797348ae86dd97510adab55","name":"Societa' Levigatori Cesena Di Zoffoli Romeo & C. (S.N.C.)","place_id":"ChIJSag_tri6LBMRqFDCxpw9kOQ","reference":"CmRSAAAAYL6v32ZeFvchlkDJ0m2usSiiLZ8o4SlxE7YzgaFtbLWR83n3qWJto46GJcfSmrwkU6LIZhWIBeqV3F6ZdLT3iwgCGR8bQ4RVV-SlWt5QZPZkQYi2ZkHzilwjTwrZQhDjEhB0M-YYolR_fDmy8Q8FAt3FGhTTo__Hk8dKn_d7DtWZSPHDoTMYAA","types":["general_contractor","point_of_interest","establishment"]},{"formatted_address":"Via Palmieri, 35, Provincia di Forlì-Cesena, Italy","geometry":{"location":{"lat":44.21563769999999,"lng":12.2322035},"viewport":{"northeast":{"lat":44.2156421,"lng":12.2322566},"southwest":{"lat":44.2156277,"lng":12.2320822}}},"icon":"https://maps.gstatic.com/mapfiles/place_api/icons/generic_business-71.png","id":"9112da39fc8eb3e7f822aeb58a783f0b8a3b2e6a","name":"Zoffoli Ortofrutticola S.R.L.","place_id":"ChIJc5ZCZsCvLBMRhG7MfoCSUwo","reference":"CmRRAAAAUI7OI5KcY6VvG2ladMUhljb6CxY6nX5YNidh4yFjWSQ761QLnDmlnbPEjwEppIToQ79bd6kukPDRtchOm8SRYbczn5Pn5yCPgpjQ_xCni70H9-i71mG8L1nqiXmBAfo8EhCGMSMvzPB0Hg3lef8dvraZGhS-Fg6lLt8blbeQs3Ssf0EsZwrhpg","types":["food","point_of_interest","establishment"]},{"formatted_address":"Via della Valle, 210, Cesena FC, Italy","geometry":{"location":{"lat":44.13306130000001,"lng":12.2240667},"viewport":{"northeast":{"lat":44.13306705000001,"lng":12.2241351},"southwest":{"lat":44.13304405,"lng":12.2238615}}},"icon":"https://maps.gstatic.com/mapfiles/place_api/icons/generic_business-71.png","id":"a1e9488e6aeab49b9298994e47727bc7df5044c4","name":"Zoffoli Ing. Gilberto","place_id":"ChIJZYju15OkLBMRQm3MedKPNNc","reference":"CmRSAAAAC1kBC3-izFgGIJewuu_vlZ0bfZvm1dcWpZjR3hqJrtIKpL47PyYGUe-xpNnlKSAlzq20VGhu1dJxyKa30bfzU9Drncp265U8AJgJ3H1MUBRnjjrtaRDbxK6LWiQldGYGEhCtCVip2CPG0Dgaqza0_xrnGhQuztOm5gFLTgcU_wfwLxLcnfpo9g","types":["point_of_interest","establishment"]},{"formatted_address":"Subborgo Federico Comandini, 140, Cesena FC, Italy","geometry":{"location":{"lat":44.14576739999999,"lng":12.2428628},"viewport":{"northeast":{"lat":44.14576784999999,"lng":12.24291945},"southwest":{"lat":44.14576605000001,"lng":12.24269285}}},"icon":"https://maps.gstatic.com/mapfiles/place_api/icons/generic_business-71.png","id":"ef124d0c13fea17cfaacbfcf2a8fb70488301627","name":"Zoffoli Romano E Remo Snc","place_id":"ChIJx6CXo9qkLBMRQDGy9O1c5bw","reference":"CmRSAAAAQZZ2325iuwwPTJJni8di9yZG8FmcM70Ekc-xEBS3bc-_waD-LbxlJTL53wl1Czm8awjlx6r23x7NANV0CtxZUXaK6dK6HDx0h7IkJ0nl4zdbOAdDkVW3XtQq_xuYHEGWEhAy4zzQY0ILX8eN4y5i7-PpGhRwGg22J4ssNErrx5Vak7FqxCy7sg","types":["point_of_interest","establishment"]},{"formatted_address":"Via Melona, 97, Cesena FC, Italy","geometry":{"location":{"lat":44.1860959,"lng":12.2439119},"viewport":{"northeast":{"lat":44.1861408,"lng":12.24391745},"southwest":{"lat":44.1859612,"lng":12.24391005}}},"icon":"https://maps.gstatic.com/mapfiles/place_api/icons/generic_business-71.png","id":"041e23e34579342fead26fda54ee8a59e0007b8c","name":"Termotecnica Di Zoffoli Ioris","place_id":"ChIJO9LZplClLBMRVN8_mI_R5tI","reference":"CmRSAAAA4efJokT0On0OwIt6l_XAj-pVLa4te_LElqtWlm6gYo_9m-O9Fx9dIhsdtBbuo-bYRsEXpzg3bz0kwoSJ6DEbNmS6TojMTVC1_k3Ck_pOCh4O2itRahnNfxJPxaEdSHJmEhCfIrnxQuioEsMto3JOhyB9GhQaXUORgzClxvkM6v9ZFYjah4z5ug","types":["plumber","point_of_interest","establishment"]}],"status":"OK"},"place":{"name":"Zoffoli ","address_1":"Sobb Comandini Federico 140","address_2":"47023 Cesena (FC)"}},{"google":{"html_attributions":[],"results":[{"formatted_address":"Via Emilia Levante, 1910, Cesena FC, Italy","geometry":{"location":{"lat":44.1223979,"lng":12.2894284},"viewport":{"northeast":{"lat":44.12250800000001,"lng":12.28953685},"southwest":{"lat":44.12236119999999,"lng":12.28939225}}},"icon":"https://maps.gstatic.com/mapfiles/place_api/icons/generic_business-71.png","id":"0bbb20d33ff276d9cc1a82b788a1d4f4d13b59f2","name":"Zoffoli Banane S.R.L.","place_id":"ChIJwx6UI3C7LBMRknBpLzshWKY","reference":"CmRSAAAA7f8FyJM7s9FEyFOM1sH9rBRV0b_ygn7HBwIh3K7J0ki2MqU8lZOzDr8mTN9p8G-0XDCylxaE2yZKpMEpH3J-1XoA0d4uYUiZ2o-nh5S5y_XVRhwyoDafd3hhr1DZYF9aEhBIwivcKkV7X_z-9GI53qHhGhSuawl6UOAyoNm9rycvTx61gUXZPw","types":["point_of_interest","establishment"]},{"formatted_address":"Via Cervese, 3307, 47521 Cesena FC, Italy","geometry":{"location":{"lat":44.1672958,"lng":12.2792793},"viewport":{"northeast":{"lat":44.16729895000001,"lng":12.27946755},"southwest":{"lat":44.16729475,"lng":12.27921655}}},"icon":"https://maps.gstatic.com/mapfiles/place_api/icons/generic_business-71.png","id":"51ffb0fcd92b8727c29ab7619d20707cb9487274","name":"Carrozzeria Zoffoli","opening_hours":{"open_now":false,"weekday_text":[]},"photos":[{"height":807,"html_attributions":["<a href=\"https://maps.google.com/maps/contrib/102846598294288625952/photos\">Carrozzeria Zoffoli</a>"],"photo_reference":"CoQBdwAAAA3edDra0kyqiuSq6q-xIMhDEaNBRmcP91er1J-uTCTPL_rE8keGmfBMDr587nCAT4sVlGS5f0qoDqSx0yW35zFVJTC8A_dYKY2EMtHfy4zvzzGlKQJo8--3jOb_Y5Vp56trL9De0PLNMVq8hvkYpq5XGMmQ6Aw_vL-STu8-xVdhEhBVlQkoDpkTE6rygt2PuBt-GhT2-gFN93_QrGvX0oZk_M-Zn2JkoQ","width":807}],"place_id":"ChIJFTTEiuq6LBMRBbNEFtADJSo","reference":"CmRRAAAAy99DNA6b2HqgB3x_84z56EvvxLayWp8sW42UnyoOi5NvP4mdFuRGBS5bBDQ7NwF_LHEMrG9SiR12kYB85Qe4jgCn6lTlYH8aQCN3it3J0DLmjoMejlp_eRf6dwTi5KEfEhC2DgVaJc62rlkYo010q-F7GhR-oSsKEPRmypQ71pH-62-BdlUBow","types":["car_repair","point_of_interest","establishment"]},{"formatted_address":"Via Archimede, 135, Cesena FC, Italy","geometry":{"location":{"lat":44.1180756,"lng":12.2943137},"viewport":{"northeast":{"lat":44.1180852,"lng":12.29450105},"southwest":{"lat":44.1180724,"lng":12.29425125}}},"icon":"https://maps.gstatic.com/mapfiles/place_api/icons/generic_business-71.png","id":"442e3a28a4afb4a09aef7dfb03db83c24de9ed41","name":"Autocarrozzeria Zoffoli","place_id":"ChIJYSspLHq7LBMR64Jbe2VRKj4","reference":"CmRRAAAAtPucIRcgVtgMIDSXR2b2lmFBq1W3i85hLTgl72BZFLuzNoB5r1JBIA_DRnWx9yr1pdi0YyELQwdzj0IN6EO_eJjdKatkgxajVRYu4BjXvV7iuZjK_nZw7b8xEmygdz64EhAZ4uxurqnUtJBTls7HYKz1GhQH39RiIPZAxAzCTj1QXpsvz66Ahg","types":["car_repair","point_of_interest","establishment"]},{"formatted_address":"Piazza Sondrio, 44, Provincia di Forlì-Cesena, Italy","geometry":{"location":{"lat":44.1450039,"lng":12.2986751},"viewport":{"northeast":{"lat":44.14504660000001,"lng":12.2987342},"southwest":{"lat":44.1448758,"lng":12.2986554}}},"icon":"https://maps.gstatic.com/mapfiles/place_api/icons/shopping-71.png","id":"f4b04ac83ef14a3349ae58a9094a8b88bea96242","name":"Zoffoli Gabriele","opening_hours":{"open_now":false,"weekday_text":[]},"place_id":"ChIJ97lKhAC7LBMRXi0DeZNHL7U","reference":"CmRSAAAA7tRBX2AH3kMKy06jAW4cZNHIHfmRYZTQXH0mXK4Pt4jE3YXMYtGoPwxiPDcogE38quTooNNRIGl_9E8Okmd5vRmxFFDccYBajMt67zu3SEYU80f0JpHNQVIbYPy-m6l9EhD08ijP5uGeV6jB4q5HnPerGhQVGUnjFxti45rhIrjClhZVt2xZvA","types":["store","point_of_interest","establishment"]},{"formatted_address":"Corso c.b. cavour, 76, 47521 Cesena FC, Italy","geometry":{"location":{"lat":44.14121739999999,"lng":12.2483875},"viewport":{"northeast":{"lat":44.14130005000001,"lng":12.248437},"southwest":{"lat":44.14118984999998,"lng":12.248239}}},"icon":"https://maps.gstatic.com/mapfiles/place_api/icons/generic_business-71.png","id":"449e3efa099048d3ab17426c868c2074698ef50d","name":"Zoffoli Pasini +","opening_hours":{"open_now":false,"weekday_text":[]},"place_id":"ChIJBV__VsGkLBMRv6u66NMs19o","reference":"CmRSAAAAHvse57rulk8DCQ76xxYN9JRvRsBtCXAQ_9nrvwnJ9-d-6_2OK1zkkWGbJUWTyLFkFr_-GEo6K5L39TvrCuuJUtHVkVmhKra4Q20XPdIvcHejSd5ocKe3h7XDxF70757YEhCoxlLgDO4gv_hMoUoA13r9GhT0bTVvIDfGOyDn9tSCUEmrh56KKQ","types":["point_of_interest","establishment"]},{"formatted_address":"Via Viole, 140, Provincia di Forlì-Cesena, Italy","geometry":{"location":{"lat":44.1209152,"lng":12.3495695},"viewport":{"northeast":{"lat":44.12096004999999,"lng":12.3495824},"southwest":{"lat":44.12078064999999,"lng":12.3495652}}},"icon":"https://maps.gstatic.com/mapfiles/place_api/icons/generic_business-71.png","id":"58930ba89114f37ed04a195ba694968601472deb","name":"Zoffoli Metalli Srl","place_id":"ChIJWYg0Kly5LBMRSRdj60HcLvE","reference":"CmRSAAAAcHXKHXHL2j0V8s12thH9rMLSE0iiJG07YD62Fm4lXz7Isy0n9UkpewAVa8FMZd98dEfcGPOy5klpqeXS72AGR3Ea2KXIbhqOvRtihUDtpZDp7vX3uFRvxU3B9XGpK3_hEhDo3qqdJbAXbvkq0Kc-Ou5iGhTLKPuarPe0-N7dNDZBpFVJKqhm_w","types":["point_of_interest","establishment"]},{"formatted_address":"Via delle Nazioni, Provincia di Forlì-Cesena, Italy","geometry":{"location":{"lat":44.170022,"lng":12.4291161},"viewport":{"northeast":{"lat":44.1700548,"lng":12.429159},"southwest":{"lat":44.16992359999999,"lng":12.4289874}}},"icon":"https://maps.gstatic.com/mapfiles/place_api/icons/generic_business-71.png","id":"5154b475b78a00342679db81c1da41c37adbfeb1","name":"Zoffoli Simone","place_id":"ChIJ4z0rBgK4LBMRPj9OxXleMco","reference":"CmRSAAAA4JKbS6F0ZPxeu2P8lWUrFndDBcSA_ANH3MW12om-sNgYG09FNOqaTdYU7blTvIjSqFLzDkp_krmx_VZnMJ8flTcEtldiWKEhzJRlg7aSEg-U69OWKIh7ZOSs9nUTStpsEhAjrd4gs8DrVvLVtmN2LdWhGhTVgPWfK3rV_QmGXN0v9QyvWdJtiw","types":["point_of_interest","establishment"]},{"formatted_address":"Corso Giuseppe Mazzini, 48, Cesena FC, Italy","geometry":{"location":{"lat":44.1375518,"lng":12.2446979},"viewport":{"northeast":{"lat":44.13769055,"lng":12.24478475},"southwest":{"lat":44.13750555,"lng":12.24466895}}},"icon":"https://maps.gstatic.com/mapfiles/place_api/icons/shopping-71.png","id":"4653bf3d7ed74c074c18f1ee0b591b1f60ad0f4f","name":"Oreficeria Zoffoli Alfonso (S.A.S.)","place_id":"ChIJ3WKQisikLBMRXN9jhteqct4","reference":"CmRSAAAAgWLpbwDCvJYhrmQAZ1xshg3KAZYmj-tNCOTqK030M5duW5ILg30L1Q__jpbQFU8eJ8uPTdWKfzjk2YnPRaPtxYnKV3Yh8-FGrHnLvRgGyksJSa_OeE4qwNNsrgXbwdNgEhB44lqlEgh7qs2hCYVICTObGhQjckGrASQTR092kkraPRWPBm4gmQ","types":["jewelry_store","store","point_of_interest","establishment"]},{"formatted_address":"Via Archimede, 270, Cesena FC, Italy","geometry":{"location":{"lat":44.11689,"lng":12.29449},"viewport":{"northeast":{"lat":44.1168954,"lng":12.29459805},"southwest":{"lat":44.11688659999999,"lng":12.29442305}}},"icon":"https://maps.gstatic.com/mapfiles/place_api/icons/generic_business-71.png","id":"46aa6bfe475ba74fd17a867b1bb08659c39fdbd3","name":"A.Z. Snc Di Zoffoli Stefano E Silvia","place_id":"ChIJoe0053u7LBMRqN4pQo4odxk","reference":"CmRRAAAAyJysRBKdsU67KgzzsT0yF2ymp1KFsT2HLTyB9gi1bmHpyfQd4nicsvTAiYSbGkCT8LO3c8WzfpHQz8shdQpJeUKpexLWhBnEmxu-X68BRpuJOVNNdYZ3DcwVdcpvQJYDEhAmuY1o_j_eOEXpX51QXsFaGhQKzja5u4NnhrlqBvLouep61b8b-g","types":["point_of_interest","establishment"]},{"formatted_address":"Via Pisignano, 921, 47521 Cesena FC, Italy","geometry":{"location":{"lat":44.1702328,"lng":12.2716607},"viewport":{"northeast":{"lat":44.17023655000001,"lng":12.2717232},"southwest":{"lat":44.17022154999999,"lng":12.2714732}}},"icon":"https://maps.gstatic.com/mapfiles/place_api/icons/generic_business-71.png","id":"4efe5bf7706595740797348ae86dd97510adab55","name":"Societa' Levigatori Cesena Di Zoffoli Romeo & C. (S.N.C.)","place_id":"ChIJSag_tri6LBMRqFDCxpw9kOQ","reference":"CmRSAAAA9-bKHmO4Efl18U-Wu9_ncgwKtmcRCB8BbXrA3zR4LSA6TutMThAQsMxhpfBUBjuFf0vUmzsS0kfCdEEp9sINuL9tEm51d7vwgOI4skyRt9a5AtR9_me8NPJ5Mkyn0p8DEhDoauzwqMbGejA6aZ6dAYzPGhRFhCrP-k9UoEKrgXpqDFzrjubV0w","types":["general_contractor","point_of_interest","establishment"]},{"formatted_address":"Via Palmieri, 35, Provincia di Forlì-Cesena, Italy","geometry":{"location":{"lat":44.21563769999999,"lng":12.2322035},"viewport":{"northeast":{"lat":44.2156421,"lng":12.2322566},"southwest":{"lat":44.2156277,"lng":12.2320822}}},"icon":"https://maps.gstatic.com/mapfiles/place_api/icons/generic_business-71.png","id":"9112da39fc8eb3e7f822aeb58a783f0b8a3b2e6a","name":"Zoffoli Ortofrutticola S.R.L.","place_id":"ChIJc5ZCZsCvLBMRhG7MfoCSUwo","reference":"CmRRAAAAAFpdpqEF15HQVDSZWx8ZkeNGF0gt9lvS4zYYE4iFirJSuB053NV3ei-nzqj8vpp0C-sM0eTJktlYAU0cHDLZxYHxTP8aunO20MD-Ofe5steqD4spZ3lEC4ky4ipcLXQ0EhAWlY5r4Po_prMgRyzSeijpGhSIw3sE5q4gaIboXW2waFAa7gpVVA","types":["food","point_of_interest","establishment"]},{"formatted_address":"Via della Valle, 210, Cesena FC, Italy","geometry":{"location":{"lat":44.13306130000001,"lng":12.2240667},"viewport":{"northeast":{"lat":44.13306705000001,"lng":12.2241351},"southwest":{"lat":44.13304405,"lng":12.2238615}}},"icon":"https://maps.gstatic.com/mapfiles/place_api/icons/generic_business-71.png","id":"a1e9488e6aeab49b9298994e47727bc7df5044c4","name":"Zoffoli Ing. Gilberto","place_id":"ChIJZYju15OkLBMRQm3MedKPNNc","reference":"CmRSAAAAGl9w40xvOEaD7H_3osFWitQJVWmg0bvx0_cup9toyMHoy15F1k3-Rprd-uKiyhoC17dZ1cj_BSj_J2iOS9J4YvlqVmnkhwm6dIP2Hwj7wp_86lX5gRf_-vukmsN7S2CyEhDXjeeI5wQnNz-Ibra9l0SOGhTgLdFU67tqQTljcQoaShAscwWkzg","types":["point_of_interest","establishment"]},{"formatted_address":"Subborgo Federico Comandini, 140, Cesena FC, Italy","geometry":{"location":{"lat":44.14576739999999,"lng":12.2428628},"viewport":{"northeast":{"lat":44.14576784999999,"lng":12.24291945},"southwest":{"lat":44.14576605000001,"lng":12.24269285}}},"icon":"https://maps.gstatic.com/mapfiles/place_api/icons/generic_business-71.png","id":"ef124d0c13fea17cfaacbfcf2a8fb70488301627","name":"Zoffoli Romano E Remo Snc","place_id":"ChIJx6CXo9qkLBMRQDGy9O1c5bw","reference":"CmRSAAAAgNpbjddjdVqSwcClD1YzoirfIZTK7_JZ1P7AKvbEHeB_n70CQWXrG3B5lvDsVxEuL-rs7DtOkKFziAs2roVZshbiC4bmTlsI39lzrLMsHjvahC2kAIVXuYFZ0FkTlFTNEhCHQZnQQcZbSkP_EH2jJvgUGhSq13rbf9QYtnK_FClWTPK2Yn24bw","types":["point_of_interest","establishment"]},{"formatted_address":"Via Melona, 97, Cesena FC, Italy","geometry":{"location":{"lat":44.1860959,"lng":12.2439119},"viewport":{"northeast":{"lat":44.1861408,"lng":12.24391745},"southwest":{"lat":44.1859612,"lng":12.24391005}}},"icon":"https://maps.gstatic.com/mapfiles/place_api/icons/generic_business-71.png","id":"041e23e34579342fead26fda54ee8a59e0007b8c","name":"Termotecnica Di Zoffoli Ioris","place_id":"ChIJO9LZplClLBMRVN8_mI_R5tI","reference":"CmRSAAAAfYjzdq_MpnqqfhJrP_wUvyWjsY84gDXxdJ_MDwh6EgfCgTQ87i-r5sTCRVlMUY6rjnxM280mYw9hUxhOYPtHBZGvl--jlpMjDn6r_-g8oF-icrI4ipqkwge_1bAcWI__EhBeimFqQTYi-PsgguLmb_qMGhSJgXXOeaxCUAve7CcBssgJudmhgg","types":["plumber","point_of_interest","establishment"]}],"status":"OK"},"place":{"name":"Zoffoli ","address_1":"Via Emilia Levante 1340","address_2":"47023 Cesena (FC)"}},{"google":{"html_attributions":[],"results":[{"formatted_address":"Via del Mare, 182, Cesena FC, Italy","geometry":{"location":{"lat":44.13905200000001,"lng":12.259889},"viewport":{"northeast":{"lat":44.13911880000001,"lng":12.25989155},"southwest":{"lat":44.13899279999999,"lng":12.25988695}}},"icon":"https://maps.gstatic.com/mapfiles/place_api/icons/generic_business-71.png","id":"b885892ab207d21a1ae405046c37c9c5acb55a85","name":"Toelettatura Davide Valli - Hair Stylists - Toelettatura Cani e Gatti","opening_hours":{"open_now":false,"weekday_text":[]},"photos":[{"height":360,"html_attributions":["<a href=\"https://maps.google.com/maps/contrib/110654326527941212393/photos\">Toelettatura Davide Valli - Hair Stylists - Toelettatura Cani e Gatti</a>"],"photo_reference":"CoQBdwAAALZqGj7xfg_h9Y_RAEblJoDe27HwbvlScvgPcZxsVEu_OHt_8bvTYVk3TSS_bqDqFXxposceGzjHf97fzwY_KZgzOsz9ZfJYBiVo27RleICp96K1wyHTej6kh1XgyVBPUk3Pwwk8oEyUYNEZfojw9xxGKWj9iDtNl2TO9uNnx-QdEhBmwOMK6_zuFHKomEk0dw59GhRrtFOvN_drrWybpz8ez7vfeKRS9A","width":980}],"place_id":"ChIJ93Si5TO7LBMRK5fh7K0kThI","reference":"CmRRAAAAA4wG8Kr5Y72DGrahj_2qrmx1L1Wts6UzQMZTlvLiKEO0ZmDtayxtHh2ZbC57WbmsVueSLybmcknC5FTi6BTCZQj1uj65atCuP2qiylCBRNBMlWEMxUjcw7Ph7hdf6g8BEhAoFEgQKw-VUKkj7VyEs2VnGhSTj7ODkQSt5fPtyEzhzAAxjjXnSg","types":["point_of_interest","establishment"]},{"formatted_address":"Via Dei Sodi, 464, 47521 Cesena FC, Italy","geometry":{"location":{"lat":44.08944299999999,"lng":12.223044}},"icon":"https://maps.gstatic.com/mapfiles/place_api/icons/generic_business-71.png","id":"6e1a915724c5357da10ae33ee51d019445857e60","name":"PENSIONE PER ANIMALI ANIMAL'S BEAUTY FARM VILLA VALLI","opening_hours":{"open_now":false,"weekday_text":[]},"photos":[{"height":360,"html_attributions":["<a href=\"https://maps.google.com/maps/contrib/113017642737086729399/photos\">PENSIONE PER ANIMALI ANIMAL&#39;S BEAUTY FARM VILLA VALLI</a>"],"photo_reference":"CoQBdwAAALdmIkC7oRgmK5gJn5sjjcvMpu0R_Onlemm91OMExppMjRPTeVQEpvZxBOWwbdMl1GZW2onhGBvR6m7iEo2Yt4SNrWkwBSvBt38GGukkRfWPWP-jKVjtfYr_iPAI0QN9_GeZyzM6tljolH9Kz8RAoRXkoor3zyn6ATpr7yJnjartEhDRTciRkk1Lqm_11_oOn8UDGhRZLB9dswxqFVOuaK9JNgFQ-O6S4Q","width":980}],"place_id":"ChIJo3mx4BqjLBMRwhOILf7UZ2A","reference":"CmRRAAAAjuEOI-tJi-XH3579eykSzkMdS8T6wS2ng7VIdDYJBvG6pmD8oXx0KRO4M4SggObIWgIS-xRmHgVhMHsd8jXh_RwUGd97yG8cSjTV5THEt3sz_aIcMNsgKBmLAlnCdBwSEhAwJGqOZ_-FxXGcF4_Ar3U6GhTMs3CdK-Wr2dXNe-6eMd0gIMoV5Q","types":["point_of_interest","establishment"]}],"status":"OK"},"place":{"name":"Animal's Beauty Farm Villa Valli Di Valli Davide","address_1":"Via Dei Sodi 464","address_2":"47023 Cesena (FC)"}},{"google":{"html_attributions":[],"results":[],"status":"ZERO_RESULTS"},"place":{"name":"Venturi Serge","address_1":"Via Chiesa Di Tipano 955","address_2":"47023 Cesena (FC)"}},{"google":{"html_attributions":[],"results":[],"status":"ZERO_RESULTS"},"place":{"name":"Casali Nino","address_1":"Via Ceriana 384","address_2":"47023 Cesena (FC)"}},{"google":{"html_attributions":[],"results":[{"formatted_address":"Via dei Fiordalisi, 11, Provincia di Forlì-Cesena, Italy","geometry":{"location":{"lat":44.0090999,"lng":12.2037696},"viewport":{"northeast":{"lat":44.0091203,"lng":12.2039367},"southwest":{"lat":44.0090387,"lng":12.2037139}}},"icon":"https://maps.gstatic.com/mapfiles/place_api/icons/generic_business-71.png","id":"99c0e69e5e3d6a2f611050f0e67b2a55d4496448","name":"Azienda Agricola Santamaria Srl","place_id":"ChIJZRCaD_6YLBMRHWHh5Xxiuv4","reference":"CmRSAAAASRdnsBaTm76RE_Ohsyu4kS7ZDlkjk_q9zaPgPma64LbxVYKgobr8cHK-uBFLAl4Zee35AUDi8aLxM2mop_ijeD8dLj6DE0ZU19lzdKDgPhCDdbQIdU754VlZQ_sqIFazEhBtNCIflmq9G2z8YjlZ_oQHGhSh1RScHZfY-NSUp_Zx53LpzA7qmA","types":["food","point_of_interest","establishment"]}],"status":"OK"},